stop_id,stop_code,stop_name,stop_desc,stop_lat,stop_lon,zone_id,stop_url,location_type,parent_station,stop_timezone,wheelchair_boarding
1AARD,5009,"AVRILLE - ARDENNE",,47.511486,-0.596012,,,0,,,1
1ACAS,16233,"ACACIAS",,47.503646,-0.586375,,,0,,,1
1ANRO,3935,"ANGERS - ROSERAIE",,47.443849,-0.553886,,,0,,,1
1BAMA,24604,"BAMAKO",,47.452165,-0.556459,,,0,,,1
1BASC,4827,"BASCULE",,47.508686,-0.591659,,,0,,,1
1BMAI,16196,"BERGES DE MAINE",,47.479341,-0.549382,,,0,,,1
1BOTA,24128,"TERRA BOTANICA",,47.494224,-0.574617,,,0,,,1
1BROY,32629,"BOIS DU ROY",,47.499605,-0.583159,,,0,,,1
1CAPU,29904,"CAPUCINS",,47.486888,-0.555233,,,0,,,1
1CECO,519627,"CENTRE DE CONGRES",,47.474152,-0.546083,,,0,,,1
1FMBL,11327,"FOCH MAISON BLEUE",,47.468992,-0.549756,,,0,,,1
1HARA,24652,"FOCH HARAS",,47.466815,-0.552657,,,0,,,1
1HDVA,194430,"HÔTEL DE VILLE",,47.471695,-0.546791,,,0,,,1
1HOPA,24731,"CHU - HOPITAL",,47.481385,-0.554158,,,0,,,1
1HSAU,3016,"HAUTS DE SAINT AUBIN",,47.492152,-0.560422,,,0,,,1
1JE23,24624,"JEAN XXIII",,47.448607,-0.562932,,,0,,,1
1JMOU,4159,"JEAN MOULIN",,47.490467,-0.552195,,,0,,,1
1JVIL,20509,"JEAN VILAR",,47.445072,-0.562326,,,0,,,1
1LAFA,31950,"PLACE LA FAYETTE",,47.460812,-0.554723,,,0,,,1
1LGAR,20910,"LES GARES",,47.464465,-0.555465,,,0,,,1
1PMAY,17915,"PLATEAU DE MAYENNE",,47.495710,-0.580051,,,0,,,1
1STGI,23494,"SAINT GILLES",,47.506512,-0.589539,,,0,,,1
1STRA,7319,"STRASBOURG",,47.456676,-0.554039,,,0,,,1
1STSE,901361,"SAINT SERGE UNIVERSITE",,47.476135,-0.550670,,,0,,,1
1VERN,25220,"VERNEAU",,47.492424,-0.567108,,,0,,,1
2AARD,22259,"AVRILLE - ARDENNE",,47.511546,-0.595931,,,0,,,1
2ACAS,12080,"ACACIAS",,47.503703,-0.586270,,,0,,,1
2ANRO,32091,"ANGERS - ROSERAIE",,47.443924,-0.554027,,,0,,,1
2BAMA,30251,"BAMAKO",,47.452110,-0.556370,,,0,,,1
2BASC,3822,"BASCULE",,47.508781,-0.591492,,,0,,,1
2BMAI,28864,"BERGES DE MAINE",,47.479441,-0.549370,,,0,,,1
2BOTA,22213,"TERRA BOTANICA",,47.494268,-0.574759,,,0,,,1
2BROY,31784,"BOIS DU ROY",,47.499664,-0.583055,,,0,,,1
2CAPU,3726,"CAPUCINS",,47.486819,-0.555139,,,0,,,1
2CECO,363258,"CENTRE DE CONGRES",,47.474266,-0.546100,,,0,,,1
2FMBL,3788,"FOCH MAISON BLEUE",,47.468932,-0.549656,,,0,,,1
2HARA,14426,"FOCH HARAS",,47.466749,-0.552567,,,0,,,1
2HDVA,184082,"HÔTEL DE VILLE",,47.471660,-0.546669,,,0,,,1
2HOPA,13445,"CHU - HOPITAL",,47.481321,-0.554055,,,0,,,1
2HSAU,29280,"HAUTS DE SAINT AUBIN",,47.492242,-0.560460,,,0,,,1
2JE23,30963,"JEAN XXIII",,47.448552,-0.562844,,,0,,,1
2JMOU,14673,"JEAN MOULIN",,47.490425,-0.552075,,,0,,,1
2JVIL,4486,"JEAN VILAR",,47.444880,-0.562255,,,0,,,1
2LAFA,15573,"PLACE LA FAYETTE",,47.460830,-0.554606,,,0,,,1
2LGAR,11515,"LES GARES",,47.464494,-0.555350,,,0,,,1
2PMAY,4961,"PLATEAU DE MAYENNE",,47.495760,-0.579940,,,0,,,1
2STGI,31945,"SAINT GILLES",,47.506242,-0.588975,,,0,,,1
2STRA,16728,"STRASBOURG",,47.457518,-0.554059,,,0,,,1
2STSE,175339,"SAINT SERGE UNIVERSITE",,47.476250,-0.550688,,,0,,,1
2VERN,13983,"VERNEAU",,47.492517,-0.567162,,,0,,,1
AAMIPI,32237,"AMIPI",,47.463699,-0.626626,,,0,,,0
AAMIPI-E,28632,"AMIPI",,47.463783,-0.626675,,,0,,,0
AARD-7C,562,"AVRILLE - ARDENNE",,47.511027,-0.595431,,,0,,,1
AARD-7E,27206,"AVRILLE - ARDENNE",,47.512074,-0.596647,,,0,,,1
ABI,180,"AVICENNE",,47.481296,-0.688410,,,0,,,0
ABI-E,931,"AVICENNE",,47.481266,-0.688869,,,0,,,0
ACADEMIE,913399,"ACADEMIE",,47.467432,-0.559145,,,0,,,0
ACAD-PLA,33737,"ACADEMIE",,47.468430,-0.558686,,,0,,,0
ACAS-7C,9581,"ACACIAS",,47.503467,-0.586344,,,0,,,0
ACAS-7E,19485,"ACACIAS",,47.504151,-0.586519,,,0,,,0
ADEZIERE,1649,"AVRILLE ADEZIERE",,47.504950,-0.605053,,,0,,,1
AIGREFOI,805210,"AIGREFOIN",,47.473258,-0.439654,,,0,,,0
ALEROY,16814,"ANDRE LEROY",,47.464497,-0.548498,,,0,,,1
ALLARD,27879,"ALLARD",,47.449534,-0.538747,,,0,,,1
ALLARD-E,5528,"ALLARD",,47.448897,-0.538698,,,0,,,1
ALLEMA-E,9078,"ALLEMAGNE",,47.527919,-0.599953,,,0,,,1
ALLEMAGN,7193,"ALLEMAGNE",,47.526667,-0.601923,,,0,,,1
ALLONN-E,5460,"ALLONNEAU",,47.485272,-0.526813,,,0,,,1
ALLONNEA,16562,"ALLONNEAU",,47.485151,-0.527028,,,0,,,1
ALLUME-E,6636,"ALLUMETTES",,47.444974,-0.502194,,,0,,,0
ALLUMETT,15447,"ALLUMETTES",,47.445270,-0.502320,,,0,,,0
ALSA-A,610546,"ALSACE",,47.470174,-0.550121,,,0,,,0
ALSA-R,210951,"ALSACE",,47.470226,-0.550386,,,0,,,0
ANAFRA-E,882585,"ANATOLE FRANCE",,47.531319,-0.613741,,,0,,,1
ANAFRAN,345518,"ANATOLE FRANCE",,47.531085,-0.613723,,,0,,,1
ANBRUE-E,648185,"ANDRE BRUEL",,47.526672,-0.468006,,,0,,,1
ANBRUEL,491458,"ANDRE BRUEL",,47.526587,-0.468124,,,0,,,1
ANDALA-E,587106,"GRAND LAUNAY",,47.461932,-0.387211,,,0,,,0
ANDALAUN,544772,"GRAND LAUNAY",,47.461916,-0.387439,,,0,,,0
ANDAMA-E,319038,"ANDARD MAIRIE",,47.456503,-0.397701,,,0,,,0
ANDAMAIR,383609,"ANDARD MAIRIE",,47.456535,-0.398180,,,0,,,0
ANDARE-E,503720,"REZEAU",,47.466847,-0.381857,,,0,,,0
ANDARESA,293715,"REZEAU",,47.467940,-0.378963,,,0,,,0
ANFRANCK,6103,"ANNE FRANK",,47.463559,-0.537773,,,0,,,1
ANFRAN-E,7909,"ANNE FRANK",,47.463465,-0.537766,,,0,,,1
ANLERO-E,14800,"ANDRE LEROY",,47.464626,-0.549028,,,0,,,1
ANLEROY,29097,"ANDRE LEROY",,47.464661,-0.548248,,,0,,,1
ANRO-11C,7919,"ANGERS - ROSERAIE",,47.444954,-0.551545,,,0,,,0
ANRO-11E,17931,"ANGERS - ROSERAIE",,47.444875,-0.551926,,,0,,,0
ANRO-5A,17458,"ANGERS - ROSERAIE",,47.444012,-0.553918,,,0,,,1
ANRO-5B,12151,"ANGERS - ROSERAIE",,47.443776,-0.553672,,,0,,,1
APPENT-E,20678,"APPENTIS",,47.445199,-0.546563,,,0,,,1
APPENTIS,30879,"APPENTIS",,47.445518,-0.546286,,,0,,,1
AQUA-A5A,17213,"AQUAVITA - CIRCULAIRE SENS A",,47.493399,-0.565286,,,0,,,1
AQUA-A5B,961964,"AQUAVITA - CIRCULAIRE SENS B",,47.493401,-0.565285,,,0,,,1
AQUA-D5A,55947,"AQUAVITA - CIRCULAIRE SENS A",,47.493407,-0.565537,,,0,,,1
AQUAVITA,52941,"AQUAVITA",,47.493401,-0.565285,,,0,,,1
AQUIT11,462834,"ALIENOR D'AQUITAINE",,47.462897,-0.615049,,,0,,,1
AQUITA-E,14482,"ALIENOR D'AQUITAINE",,47.463023,-0.615073,,,0,,,1
AQVI-D5B,96211,"AQUAVITA - CIRCULAIRE SENS B",,47.493497,-0.565528,,,0,,,1
ARAGO-E,26055,"ARAGON",,47.471766,-0.566403,,,0,,,0
ARAGON,25304,"ARAGON",,47.471657,-0.566612,,,0,,,0
ARBORE-E,21951,"ARBORETUM",,47.449385,-0.544430,,,0,,,1
ARBORETU,32544,"ARBORETUM",,47.449317,-0.544143,,,0,,,1
ARCAD-E,17259,"ARCADES",,47.507205,-0.516591,,,0,,,0
ARCADES,24569,"ARCADES",,47.506927,-0.516858,,,0,,,0
ARCEAU,15889,"ARCEAU",,47.471079,-0.519783,,,0,,,1
ARCEAU-E,16444,"ARCEAU",,47.470973,-0.519837,,,0,,,1
AROBA-E,31354,"AROBASE",,47.463994,-0.531698,,,0,,,0
AROBASE,21097,"AROBASE",,47.464591,-0.531546,,,0,,,0
ARTAUD,22172,"ARTAUD",,47.434046,-0.610954,,,0,,,1
ARTAUD-E,14855,"ARTAUD",,47.433341,-0.610894,,,0,,,1
ATHLET-E,12108,"ATHLETIS",,47.441471,-0.528349,,,0,,,1
ATHLETIS,30156,"ATHLETIS",,47.441615,-0.527949,,,0,,,1
ATOLL,21638,"L'ATOLL",,47.483026,-0.632254,,,0,,,0
ATOLL-AR,540059,"BEAUCOUZE L'ATOLL",,47.484128,-0.626432,,,0,,,1
ATOLLBEA,20041,"BEAUCOUZE L'ATOLL",,47.484232,-0.626432,,,0,,,1
ATOLL-E,43346,"L'ATOLL",,47.483180,-0.632515,,,0,,,0
ATSVIL-E,180300,"ECOLE ACCUEIL VILLEVEQUE",,47.559509,-0.424173,,,0,,,0
ATSVILLE,329831,"ECOLE ACCUEIL VILLEVEQUE",,47.559478,-0.424182,,,0,,,0
AUBEPI-E,9385,"AUBEPINE",,47.461562,-0.495899,,,0,,,1
AUBEPINE,8536,"AUBEPINE",,47.461705,-0.495984,,,0,,,1
AUBERD-E,830731,"AUBERDERIE",,47.537906,-0.478534,,,0,,,0
AUBERDER,747618,"AUBERDERIE",,47.537885,-0.478691,,,0,,,0
AUBRIA-E,16914,"AUBRIAIS",,47.515750,-0.667693,,,0,,,0
AUBRIAIS,18000,"AUBRIAIS",,47.515797,-0.667935,,,0,,,0
AUBRY,7225,"AUBRY",,47.440983,-0.552069,,,0,,,0
AUBRY-E,48579,"AUBRY",,47.441839,-0.552229,,,0,,,0
AULNAI-E,172702,"AULNAIES",,47.586835,-0.439987,,,0,,,0
AULNAIES,193602,"AULNAIES",,47.586747,-0.439937,,,0,,,0
AULNERIE,937759,"AULNERIE",,47.587453,-0.492889,,,0,,,0
AURI-A5B,173687,"AURIOL",,47.491289,-0.564935,,,0,,,1
AUTHIO-E,24408,"AUTHION",,47.431570,-0.528831,,,0,,,1
AUTHION,22482,"AUTHION",,47.431515,-0.528398,,,0,,,1
AUTRIC-E,30185,"AUTRICHE",,47.522911,-0.609403,,,0,,,1
AUTRICH,18326,"AUTRICHE",,47.522984,-0.609961,,,0,,,1
AUVERG-E,3123,"AUVERGNE",,47.490197,-0.530055,,,0,,,1
AUVERGNE,2306,"AUVERGNE",,47.489505,-0.530824,,,0,,,1
AVALOUP,351192,"AVALOUP",,47.456890,-0.437023,,,0,,,0
AVENEU-E,3623,"AVENUE DE L'EUROPE",,47.528212,-0.594799,,,0,,,1
AVENEURO,31525,"AVENUE DE L'EUROPE",,47.527947,-0.595780,,,0,,,1
BACHEM-E,157642,"BAS CHEMIN",,47.424905,-0.384269,,,0,,,0
BACHOUAS,294727,"BACHOUASNE",,47.467853,-0.433422,,,0,,,0
BACHOU-E,602037,"BACHOUASNE",,47.467774,-0.433359,,,0,,,1
BAHONN-E,1159,"BAHONNEAU",,47.453429,-0.482950,,,0,,,0
BAHONNEA,26142,"BAHONNEAU",,47.453189,-0.483239,,,0,,,0
BALANDE,29121,"BASSE LANDE",,47.505124,-0.594820,,,0,,,1
BALAND-E,30198,"BASSE LANDE",,47.505460,-0.595349,,,0,,,1
BALLOUR,23505,"BALLOUR",,47.483243,-0.562464,,,0,,,0
BANCHA-E,25865,"BANCHAIS",,47.485523,-0.511796,,,0,,,1
BANCHAIS,25147,"BANCHAIS",,47.485298,-0.512160,,,0,,,1
BANCST-E,2573,"BANCHAIS",,47.485819,-0.512468,,,0,,,0
BANCSTMA,20610,"BANCHAIS",,47.486004,-0.512375,,,0,,,0
BARBOT-E,1092,"BARBOTTERIE",,47.400873,-0.525167,,,0,,,1
BARBOTER,24521,"BARBOTTERIE",,47.400469,-0.524769,,,0,,,1
BARON-AR,302718,"SAINT AUBIN LA SALLE",,47.489696,-0.503596,,,0,,,1
BARON-DE,20429,"SAINT AUBIN LA SALLE",,47.489696,-0.503609,,,0,,,1
BARONERI,30230,"SAINT AUBIN LA SALLE",,47.489414,-0.503201,,,0,,,0
BARONN-E,693977,"SAINT AUBIN LA SALLE",,47.489312,-0.504080,,,0,,,1
BARONNER,2861,"SAINT AUBIN LA SALLE",,47.489312,-0.504080,,,0,,,1
BARRA,21480,"BARRA",,47.483717,-0.563930,,,0,,,1
BARRA -E,2442,"BARRA",,47.483823,-0.563729,,,0,,,1
BARRA-E,690505,"BARRA",,47.483822,-0.563733,,,0,,,1
BASCHE-E,884139,"BASSE CHESNAIE",,47.573791,-0.677447,,,0,,,0
BASCHEM,948490,"BAS CHEMIN",,47.425014,-0.384247,,,0,,,0
BASCHESN,652997,"BASSE CHESNAIE",,47.573899,-0.677436,,,0,,,0
BASMOR-E,8169,"BAS MORTIER",,47.515320,-0.474483,,,0,,,1
BASMORTI,7483,"BAS MORTIER",,47.515371,-0.474625,,,0,,,1
BAUDON,289578,"BAUDON",,47.539386,-0.579310,,,0,,,0
BAUDON-E,732813,"BAUDON",,47.539292,-0.579389,,,0,,,0
BAUDRA-E,11299,"BAUDRAIRIE",,47.437811,-0.507591,,,0,,,1
BAUDRAI,19950,"BAUDRAIRIE",,47.437909,-0.507103,,,0,,,1
BAUNBR-E,58353,"CHÂTEAU BRIANÇON",,47.503388,-0.351694,,,0,,,0
BAUNBRIA,109894,"CHÂTEAU BRIANÇON",,47.503481,-0.351515,,,0,,,0
BAUNCE-E,928925,"BAUNE CENTRE",,47.499283,-0.318599,,,0,,,0
BAUNCENT,353041,"BAUNE CENTRE",,47.499427,-0.318602,,,0,,,0
BBRANC-E,27533,"BELLEBRANCHE",,47.528251,-0.528310,,,0,,,0
BBRANCHE,22762,"BELLEBRANCHE",,47.528127,-0.528311,,,0,,,0
BEADI-AR,10612,"MAIRIE DE BEAUCOUZE",,47.474621,-0.630088,,,0,,,0
BEADIM,8391,"MAIRIE DE BEAUCOUZE",,47.474534,-0.630126,,,0,,,0
BEAUC AR,29830,"BEAUCOUZE HAUTE ROCHE",,47.470313,-0.625168,,,0,,,0
BEAUC-AR,367337,"BEAUCOUZE HAUTE ROCHE",,47.470313,-0.625168,,,0,,,1
BEAUCOUZ,28687,"BEAUCOUZE HAUTE ROCHE",,47.470313,-0.625168,,,0,,,0
BEAUFI-E,2771,"BEAUMANOIR",,47.451899,-0.510452,,,0,,,0
BEAULI-E,12880,"BEAULIEU",,47.495464,-0.436670,,,0,,,0
BEAULIEU,4126,"BEAULIEU",,47.495526,-0.437026,,,0,,,0
BEAUMAN,27618,"BEAUMANOIR",,47.451543,-0.510523,,,0,,,0
BEAUM-E,3588,"BEAUMANOIR",,47.451305,-0.510725,,,0,,,0
BEAURE-E,6393,"BEAUREPAIRE",,47.474004,-0.559487,,,0,,,0
BEAUREPA,15816,"BEAUREPAIRE",,47.473985,-0.559654,,,0,,,0
BEAUVA-E,11101,"BEAUVAL",,47.451682,-0.551264,,,0,,,0
BEAUVAL,9892,"BEAUVAL",,47.451403,-0.550429,,,0,,,0
BECKE,58108,"BECKER",,47.538835,-0.622005,,,0,,,1
BECK-E,67197,"BECKER",,47.538824,-0.622184,,,0,,,1
BEDAUD-E,5506,"BEDAUDIERE",,47.501358,-0.393321,,,0,,,0
BEDAUDIE,26883,"BEDAUDIERE",,47.501333,-0.394999,,,0,,,0
BEDIER,16246,"BEDIER",,47.450112,-0.552650,,,0,,,0
BEDIER-E,14067,"BEDIER",,47.449912,-0.552761,,,0,,,0
BELAIR,17130,"BEL AIR",,47.529838,-0.606973,,,0,,,1
BELAIR-E,15243,"BEL AIR",,47.529907,-0.607303,,,0,,,1
BELFON-E,32395,"MAISON DES ARTS",,47.471701,-0.537442,,,0,,,1
BELFONTA,31709,"MAISON DES ARTS",,47.471851,-0.537747,,,0,,,1
BELLAN-E,32424,"BELLANGERIE",,47.482347,-0.684534,,,0,,,0
BELLANGE,8582,"BELLANGERIE",,47.482203,-0.684891,,,0,,,0
BELLCO-E,536209,"CORNE BELLEVUE",,47.473545,-0.346383,,,0,,,0
BELLCORN,275985,"CORNE BELLEVUE",,47.473610,-0.346381,,,0,,,0
BELLVUTR,30214,"BELLEVUE",,47.448196,-0.506884,,,0,,,1
BELNOUE,672416,"BELLENOUE",,47.420600,-0.300998,,,0,,,0
BELOEI-E,15961,"BEL OEIL",,47.427039,-0.556771,,,0,,,0
BELOEIL,7658,"BEL OEIL",,47.426686,-0.556662,,,0,,,0
BELPOU-E,21861,"BELLE POULE",,47.428427,-0.527754,,,0,,,0
BELPOULE,21306,"BELLE POULE",,47.427888,-0.527154,,,0,,,0
BELVTR-E,29169,"BELLEVUE",,47.447850,-0.507966,,,0,,,1
BENE,3624,"MONTREUIL JUIGNE - BENE",,47.541165,-0.609630,,,0,,,1
BENE-E,27645,"MONTREUIL JUIGNE - BENE",,47.541120,-0.609456,,,0,,,1
BESNARDI,96684,"BESNARDIERE",,47.479730,-0.544374,,,0,,,0
BEURRI-E,23326,"BEURRIERE",,47.497355,-0.589230,,,0,,,1
BEURRIER,21726,"BEURRIERE",,47.497569,-0.589541,,,0,,,1
BIAIS,889875,"BIAIS",,47.584722,-0.539329,,,0,,,0
BIAIS-E,841213,"BIAIS",,47.584779,-0.539434,,,0,,,0
BICHO.-E,991,"BICHON",,47.479300,-0.564668,,,0,,,1
BICHON,27019,"BICHON",,47.478730,-0.564193,,,0,,,1
BICHON.,7036,"BICHON",,47.479329,-0.564851,,,0,,,1
BICHON-E,20435,"BICHON",,47.479236,-0.563642,,,0,,,1
BIGOT-E,21778,"BIGOT",,47.482320,-0.560786,,,0,,,1
BIOP-E,48952,"BIOPOLE",,47.482015,-0.496282,,,0,,,1
BIOPOL,13485,"BIOPOLE",,47.482233,-0.496533,,,0,,,1
BIRGTEC,17769,"BIRGE",,47.474707,-0.519892,,,0,,,1
BIRGTE-E,13020,"BIRGE",,47.475222,-0.519773,,,0,,,1
BLANDEAU,7587,"BLANDEAU",,47.457523,-0.543312,,,0,,,1
BLANDE-E,2217,"BLANDEAU",,47.457386,-0.543217,,,0,,,1
BLERIO-E,3197,"BLERIOT",,47.486142,-0.563437,,,0,,,1
BLERIOT,22166,"BLERIOT",,47.485973,-0.563643,,,0,,,1
BLITOU-E,8054,"BLITOURNE",,47.527410,-0.434068,,,0,,,0
BLITOURN,8555,"BLITOURNE",,47.527103,-0.434297,,,0,,,0
BMAI-9C,14427,"BERGES DE MAINE",,47.478749,-0.549624,,,0,,,1
BMAI-9E,11244,"BERGES DE MAINE",,47.478509,-0.548904,,,0,,,1
BMARZE-E,10489,"BASSE MARZELLE",,47.341696,-0.525002,,,0,,,0
BMARZELL,29922,"BASSE MARZELLE",,47.341845,-0.524599,,,0,,,0
BMOTTE,25850,"BELLE MOTTE",,47.531091,-0.516575,,,0,,,0
BMOTTE-E,11002,"BELLE MOTTE",,47.530981,-0.516524,,,0,,,0
BODI2,338446,"BODINIER",,47.472724,-0.553570,,,0,,,1
BODINI-E,298774,"BODINIERE",,47.585439,-0.447124,,,0,,,0
BODINIER,906273,"BODINIERE",,47.585453,-0.447282,,,0,,,0
BOHABRAI,38658,"ROUTE DE BRAIN",,47.421427,-0.399269,,,0,,,0
BOHABR-E,377290,"ROUTE DE BRAIN",,47.421471,-0.399114,,,0,,,0
BOHACE-E,374732,"CENDREUSE",,47.422276,-0.385158,,,0,,,0
BOHACEND,953348,"CENDREUSE",,47.422421,-0.384953,,,0,,,0
BOHASA-E,429073,"CHEMIN SALETTE",,47.424605,-0.389309,,,0,,,0
BOHASALE,300213,"CHEMIN SALETTE",,47.424704,-0.388942,,,0,,,0
BOIRES,904270,"LES BOIRES",,47.410850,-0.296001,,,0,,,0
BOISABBE,1559,"BOIS L'ABBE",,47.490304,-0.514225,,,0,,,0
BOISAB-E,2212,"BOIS L'ABBE",,47.490362,-0.514024,,,0,,,0
BOISEP-E,617836,"BOIS D'EPINARD",,47.474442,-0.330299,,,0,,,0
BOISEPI2,142312,"BOIS D'EPINARD",,47.474589,-0.330259,,,0,,,0
BOISHO-E,277487,"BOIS DE L'HOPITAL",,47.470435,-0.459277,,,0,,,0
BOISHOPI,778313,"BOIS DE L'HOPITAL",,47.470542,-0.459278,,,0,,,0
BOISNERI,923534,"BOISNERIE",,47.511524,-0.360042,,,0,,,0
BOISPOUI,393328,"BOIS DE POUILLÉ",,47.423239,-0.687602,,,0,,,0
BOISRA-E,4209,"BOISRAME",,47.478256,-0.584697,,,0,,,1
BOISRAME,22086,"BOISRAME",,47.478299,-0.584799,,,0,,,1
BONNERIE,790406,"BONNERIE",,47.522882,-0.446449,,,0,,,0
BONPLA-E,542285,"BONPLAND",,47.514547,-0.590885,,,0,,,1
BONPLAND,204457,"BONPLAND",,47.514589,-0.589588,,,0,,,1
BOPON-E,8578,"BOUCHEMAINE PONT",,47.420527,-0.610593,,,0,,,0
BOPONT,5303,"BOUCHEMAINE PONT",,47.420645,-0.610372,,,0,,,0
BOREAU,22327,"BOREAU",,47.475261,-0.546194,,,0,,,1
BOREAU-E,806695,"BOREAU",,47.475299,-0.545847,,,0,,,0
BOSCH,10110,"BOIS RINIER",,47.476582,-0.497989,,,0,,,0
BOSCH-E,63542,"BOIS RINIER",,47.476432,-0.497398,,,0,,,1
BOSQUE-E,9680,"BOSQUET",,47.409779,-0.524831,,,0,,,0
BOSQUET,13421,"BOSQUET",,47.410024,-0.524358,,,0,,,0
BOUCHE-E,10804,"BOUCHEMAINE CENTRE",,47.421642,-0.610533,,,0,,,1
BOUCHEM,9302,"BOUCHEMAINE CENTRE",,47.421757,-0.610429,,,0,,,1
BOUGO.-E,10871,"BOURGONNIER",,47.461608,-0.541195,,,0,,,1
BOUGONNI,27073,"BOURGONNIER",,47.462174,-0.542227,,,0,,,1
BOULLE,7334,"BOULLE",,47.486717,-0.628579,,,0,,,1
BOULLE-E,15478,"BOULLE",,47.486505,-0.628691,,,0,,,1
BOURG,25980,"BOURG",,47.590709,-0.555365,,,0,,,0
BOURG-E,14979,"BOURG",,47.590757,-0.555217,,,0,,,0
BOURGLAC,28777,"BOURG LA CROIX",,47.450806,-0.523737,,,0,,,0
BOURGL-E,178374,"BOURG LA CROIX",,47.450730,-0.523816,,,0,,,0
BOURJOLY,84254,"BOURG JOLY",,47.408872,-0.313344,,,0,,,0
BOURRELI,385547,"BOURRELIERE",,47.381943,-0.564033,,,0,,,0
BOURSE,18560,"BOURSE",,47.442828,-0.495440,,,0,,,0
BOURSE-E,19507,"BOURSE",,47.442536,-0.495088,,,0,,,0
BOUTEI-E,117791,"BOUTEILLERIE",,47.478836,-0.431989,,,0,,,0
BOUTEILL,602328,"BOUTEILLERIE",,47.479017,-0.432242,,,0,,,0
BOUTHO-E,12112,"BOUCHE THOMAS",,47.444509,-0.550411,,,0,,,1
BOUTHOMA,29965,"BOUCHE THOMAS",,47.444910,-0.550044,,,0,,,1
BOUVET,3637,"BOUVET",,47.562726,-0.675295,,,0,,,0
BOUVET-E,30358,"BOUVET",,47.563321,-0.675793,,,0,,,0
BPASTE-E,11261,"BON PASTEUR",,47.470506,-0.569135,,,0,,,0
BPASTEUR,29906,"BON PASTEUR",,47.470432,-0.568007,,,0,,,0
BRAI8MAI,789925,"PLACE DU 8 MAI",,47.446118,-0.412392,,,0,,,0
BRAI8M-E,562043,"PLACE DU 8 MAI",,47.445926,-0.412117,,,0,,,0
BRAIBO-E,348073,"CROIX DE BOIS",,47.449140,-0.425265,,,0,,,0
BRAIBOIS,551743,"CROIX DE BOIS",,47.449229,-0.425280,,,0,,,0
BRAICO-E,837119,"CROIX COMBEAU",,47.453695,-0.408351,,,0,,,0
BRAICOMB,699137,"CROIX COMBEAU",,47.454293,-0.408484,,,0,,,0
BRAINA-E,364514,"CRÉMAILLÈRE D'ARGENT",,47.465282,-0.433265,,,0,,,0
BRAINARG,933848,"CRÉMAILLÈRE D'ARGENT",,47.465321,-0.433171,,,0,,,0
BRAINNAR,776186,"NARCE",,47.448874,-0.429982,,,0,,,0
BRAINN-E,145513,"NARCE",,47.448579,-0.431165,,,0,,,0
BRARDIER,974048,"BRARDIERE",,47.582185,-0.494121,,,0,,,0
BRASSE-E,25269,"BRASSENS",,47.494884,-0.587235,,,0,,,1
BRASSENS,351,"BRASSENS",,47.494139,-0.586439,,,0,,,1
BREMON-E,25430,"GARES BREMONT",,47.465969,-0.559297,,,0,,,1
BRETEA-E,89029,"BRETEAU",,47.573645,-0.437244,,,0,,,0
BRETEAU,22377,"BRETEAU",,47.573784,-0.437338,,,0,,,0
BRGPAI-E,12036,"BOURG DE PAILLE",,47.474869,-0.624666,,,0,,,1
BRGPAILL,10958,"BOURG DE PAILLE",,47.474358,-0.624940,,,0,,,1
BRIOLLAY,14848,"MAIRIE DE BRIOLLAY",,47.563657,-0.507705,,,0,,,0
BRIOLL-E,24952,"MAIRIE DE BRIOLLAY",,47.563506,-0.507313,,,0,,,0
BRISEA-E,28767,"BRISEPOTIERE",,47.478792,-0.528402,,,0,,,1
BRISEP-E,3496,"BRISEPOTIERE",,47.479348,-0.527253,,,0,,,1
BRISEPOA,27984,"BRISEPOTIERE",,47.478907,-0.528511,,,0,,,1
BRISEPOT,2222,"BRISEPOTIERE",,47.479537,-0.527283,,,0,,,1
BRISPO-E,341704,"BRISEPOTIÈRE",,47.478760,-0.528069,,,0,,,1
BRISPOTI,968494,"BRISEPOTIÈRE",,47.478445,-0.528323,,,0,,,1
BROCHONS,294849,"BROCHONS",,47.421952,-0.327366,,,0,,,0
BRULETTE,686700,"LA BRULETTE",,47.579995,-0.440686,,,0,,,0
BSOLEI-E,12061,"BEAU SOLEIL",,47.426713,-0.721350,,,0,,,0
BSOLEIL,30366,"BEAU SOLEIL",,47.426576,-0.721257,,,0,,,0
BUCHET-E,306514,"BUCHETIERE",,47.559747,-0.428126,,,0,,,0
BUCHETIE,736317,"BUCHETIERE",,47.559684,-0.428279,,,0,,,0
BUISBE-E,234869,"BUISSONS BELLES",,47.447951,-0.421034,,,0,,,0
BUISBELL,40296,"BUISSONS BELLES",,47.448036,-0.420989,,,0,,,0
BUISSO-E,5587,"TRELAZE BUISSON",,47.441901,-0.483960,,,0,,,1
BUISSON,3856,"TRELAZE BUISSON",,47.442039,-0.484633,,,0,,,1
BVALLE-E,29950,"BASSES VALLEES",,47.579055,-0.499698,,,0,,,0
BVALLEES,31943,"BASSES VALLEES",,47.579336,-0.499741,,,0,,,0
CALAIS,775835,"CALAIS",,47.461997,-0.432557,,,0,,,0
CAMELIAS,11696,"CAMELIA",,47.471293,-0.518956,,,0,,,1
CAMELI-E,10436,"CAMELIA",,47.471343,-0.519236,,,0,,,1
CAMLAC-E,1059,"LAC DE MAINE CAMPING",,47.457702,-0.597228,,,0,,,1
CAMLACMA,276,"LAC DE MAINE CAMPING",,47.458118,-0.596992,,,0,,,1
CAMPBO-E,13123,"CAMPING DE BOUCHEMAINE",,47.419291,-0.611639,,,0,,,1
CAMPBOUC,11882,"CAMPING DE BOUCHEMAINE",,47.419392,-0.611368,,,0,,,1
CAMPJU-E,996,"CAMPING DE JUIGNE",,47.537139,-0.616849,,,0,,,0
CAMPJUIG,7458,"CAMPING DE JUIGNE",,47.537566,-0.616886,,,0,,,0
CAMUS.05,9583,"CAMUS",,47.485242,-0.575873,,,0,,,1
CAMUS5-E,20823,"CAMUS",,47.484968,-0.575759,,,0,,,1
CANTCH-E,833087,"CHAMP FLEURI CANTENAY",,47.537297,-0.571154,,,0,,,0
CANTCHFL,735372,"CHAMP FLEURI CANTENAY",,47.537190,-0.571130,,,0,,,0
CANTPA-E,936930,"PATIS",,47.540367,-0.582375,,,0,,,0
CANTPAT,800212,"PATIS",,47.540477,-0.582388,,,0,,,0
CAPU8-C,32069,"CAPUCINS",,47.487437,-0.554853,,,0,,,1
CAPU8-E,21219,"CAPUCINS",,47.487415,-0.554497,,,0,,,1
CARCIT-E,8361,"CARREFOUR ST SERGE",,47.487632,-0.543143,,,0,,,1
CARCITR,784,"CARREFOUR ST SERGE",,47.487174,-0.543685,,,0,,,1
CARLIN-E,21252,"LINNE",,47.446481,-0.547785,,,0,,,0
CARLINNE,20077,"LINNE",,47.446561,-0.547592,,,0,,,0
CARMET,9979,"JEAN CARMET",,47.400262,-0.543626,,,0,,,1
CARMET-E,16860,"JEAN CARMET",,47.400575,-0.543148,,,0,,,1
CARNOT,9569,"CENTRE DE CONGRÈS",,47.474286,-0.546556,,,0,,,1
CARREA-E,19826,"CARREAUX",,47.512066,-0.471417,,,0,,,0
CARREAUX,25276,"CARREAUX",,47.512565,-0.471944,,,0,,,0
CARRF5B,9318,"CARREFOUR ST SERGE",,47.488084,-0.542511,,,0,,,1
CARRSS-E,6897,"CARREFOUR ST SERGE",,47.488125,-0.543509,,,0,,,1
CCADEA,5701,"CROIX CADEAU",,47.519948,-0.609453,,,0,,,0
CCADEA-E,3576,"CROIX CADEAU",,47.520229,-0.609551,,,0,,,1
CCADE-IR,669054,"CROIX CADEAU",,47.517612,-0.608019,,,0,,,1
CCBGPAI,953694,"BOURG DE PAILLE",,47.473272,-0.623241,,,0,,,1
CCHEMI-E,30919,"CROIX DE CHEMINEE",,47.467526,-0.502874,,,0,,,0
CCHEMINE,30005,"CROIX DE CHEMINEE",,47.467762,-0.503228,,,0,,,0
CCICHA-E,24375,"CCI",,47.468365,-0.557633,,,0,,,1
CCOMME-E,10530,"CENTRE COMMERCIAL",,47.437747,-0.526761,,,0,,,1
CCOMMERC,3146,"CENTRE COMMERCIAL",,47.437849,-0.526928,,,0,,,1
CEEQUE-E,15981,"CENTRE EQUESTRE",,47.459571,-0.484562,,,0,,,1
CEEQUEST,14512,"CENTRE EQUESTRE",,47.459580,-0.484705,,,0,,,1
CENCON-E,596104,"CENTRE DES CONGRES",,47.473922,-0.545119,,,0,,,0
CESARG-E,23705,"CÉSAR GEOFFRAY",,47.458387,-0.545494,,,0,,,1
CESARGEO,66,"CÉSAR GEOFFRAY",,47.458645,-0.545934,,,0,,,1
CEZAN-E,16647,"CEZANNE",,47.469635,-0.491936,,,0,,,1
CEZANNE,20935,"CEZANNE",,47.469797,-0.491896,,,0,,,1
CFPA,13734,"AFPA",,47.471545,-0.523350,,,0,,,1
CFPA-E,14322,"AFPA",,47.471460,-0.522837,,,0,,,1
CHABLA-E,10390,"CHAMPS BLANCS",,47.517352,-0.475216,,,0,,,1
CHABLANC,9247,"CHAMPS BLANCS",,47.517229,-0.475263,,,0,,,1
CHABOLAI,483245,"CHABOLAIS",,47.495699,-0.506402,,,0,,,1
CHACOMME,27218,"CCI",,47.468177,-0.557820,,,0,,,1
CHADL-E,8514,"CHAMPDOLLANT",,47.556395,-0.561424,,,0,,,0
CHAERI-E,8276,"CHATEAU ERIGNE",,47.406391,-0.526012,,,0,,,0
CHAERIGN,7264,"CHATEAU ERIGNE",,47.406476,-0.525753,,,0,,,0
CHAGAL-E,675868,"CHAGALL",,47.560152,-0.677582,,,0,,,0
CHAGALL,409509,"CHAGALL",,47.560054,-0.677517,,,0,,,0
CHALOU-E,16972,"CHALOUERE",,47.481943,-0.536031,,,0,,,1
CHALOUER,16319,"CHALOUERE",,47.481349,-0.536775,,,0,,,1
CHAMAIRE,52310,"CHAMP DE L'AIRE",,47.437255,-0.615014,,,0,,,1
CHAMBO-E,22463,"CHAMPBOUREAU",,47.396673,-0.636717,,,0,,,0
CHAMBOUR,5924,"CHAMPBOUREAU",,47.396552,-0.636717,,,0,,,0
CHAMF-E,48621,"CHAMPFLEUR",,47.482646,-0.503814,,,0,,,0
CHAMFL,15711,"CHAMPFLEUR",,47.483024,-0.504334,,,0,,,0
CHAMPD,30452,"CHAMPDOLLANT",,47.556722,-0.561433,,,0,,,0
CHANSONN,654132,"ROUTE DE LA CHANSONNIERE",,47.583595,-0.483435,,,0,,,0
CHANT AR,769363,"BOUCHEMAINE CHANTOURTEAU",,47.406140,-0.623126,,,0,,,0
CHANT-AR,21417,"BOUCHEMAINE CHANTOURTEAU",,47.406142,-0.623143,,,0,,,0
CHANTE-E,25568,"CHANTERIE",,47.470885,-0.628087,,,0,,,0
CHANTERI,24849,"CHANTERIE",,47.470943,-0.628019,,,0,,,0
CHANTOUR,20438,"BOUCHEMAINE CHANTOURTEAU",,47.406116,-0.623126,,,0,,,0
CHANZY,13887,"CHANZY",,47.460151,-0.557471,,,0,,,1
CHANZY-E,32089,"CHANZY",,47.460053,-0.557665,,,0,,,1
CHAPE,651257,"CHAPELLES",,47.468731,-0.382975,,,0,,,0
CHAPE-E,822070,"CHAPELLES",,47.468641,-0.382972,,,0,,,0
CHAPEL-E,5633,"CHAPELLES ANDARD",,47.468668,-0.383012,,,0,,,0
CHAPELLE,21227,"CHAPELLES ANDARD",,47.468670,-0.382879,,,0,,,0
CHARNA-E,5036,"CHARNASSERIE",,47.491866,-0.556585,,,0,,,1
CHARNASS,30008,"CHARNASSERIE",,47.491573,-0.557802,,,0,,,1
CHARRUAU,994566,"CHARRUAU",,47.372821,-0.509244,,,0,,,0
CHARRU-E,758914,"CHARRUAU",,47.372710,-0.509213,,,0,,,0
CHATA-E,657686,"CHATAIGNIER",,47.545858,-0.649886,,,0,,,0
CHATAI,372480,"CHATAIGNIER",,47.545682,-0.649983,,,0,,,0
CHATELAI,23220,"CHATELAIN",,47.482844,-0.514735,,,0,,,0
CHATEL-E,24167,"CHATELAIN",,47.483169,-0.514182,,,0,,,1
CHATENAY,2146,"CHATENAY",,47.482730,-0.521178,,,0,,,1
CHATEN-E,2767,"CHATENAY",,47.482569,-0.521180,,,0,,,1
CHAU-E,268887,"CHAUVELAIE",,47.436456,-0.584441,,,0,,,0
CHAUMI-E,12609,"CHAUMIÈRES",,47.524440,-0.523314,,,0,,,0
CHAUMIER,12643,"CHAUMIÈRES",,47.524116,-0.523314,,,0,,,0
CHAUVE,60539,"CHAUVELAIE",,47.436533,-0.584372,,,0,,,0
CHBBEI-E,22139,"CHAPELLE BELLE BEILLE",,47.475463,-0.585993,,,0,,,1
CHBBEILL,21074,"CHAPELLE BELLE BEILLE",,47.475812,-0.586120,,,0,,,1
CHDARR,39215,"CHATEAU",,47.468772,-0.559284,,,0,,,1
CHDARR-E,31053,"CHATEAU",,47.469273,-0.560032,,,0,,,1
CHEMARDE,692812,"AVRILLE - ARDENNE",,47.512466,-0.596402,,,0,,,0
CHEMAR-E,792762,"AVRILLE - ARDENNE",,47.512196,-0.596042,,,0,,,0
CHEMIPRE,433167,"CHEMIN DU PRE",,47.467247,-0.635591,,,0,,,0
CHEMON-E,395248,"CHEMIN DE MONGAZON",,47.482446,-0.481567,,,0,,,0
CHEMONGA,921683,"CHEMIN DE MONGAZON",,47.484508,-0.484922,,,0,,,0
CHENAIE,543770,"CHENAIE",,47.547969,-0.474294,,,0,,,0
CHENAI-E,145360,"CHENAIE",,47.548042,-0.474411,,,0,,,0
CHENERON,980954,"CHENE ROND",,47.395940,-0.536420,,,0,,,0
CHENOI-E,903926,"CHEMIN NOIR",,47.529576,-0.591020,,,0,,,1
CHENOIR,74282,"CHEMIN NOIR",,47.529411,-0.590817,,,0,,,1
CHENR-E,284422,"CHENE ROND",,47.395843,-0.536236,,,0,,,0
CHEPRE-E,667046,"CHEMIN DU PRE",,47.467193,-0.635483,,,0,,,0
CHESNA-E,28622,"LA CHESNAIE",,47.437021,-0.524003,,,0,,,1
CHESNAIE,21405,"LA CHESNAIE",,47.437232,-0.524311,,,0,,,1
CHESPR-E,658925,"CHESNAIE PRUILLÉ",,47.566127,-0.677766,,,0,,,0
CHESPRUI,244895,"CHESNAIE PRUILLÉ",,47.566050,-0.678228,,,0,,,0
CHEVA-E,28793,"CHEVALLERIE",,47.554744,-0.660964,,,0,,,0
CHEVAL,3108,"CHEVALLERIE",,47.553862,-0.659708,,,0,,,0
CHEVRI-E,7832,"CHEVRIERE",,47.423899,-0.609243,,,0,,,0
CHEVRIER,7016,"CHEVRIERE",,47.423908,-0.609100,,,0,,,0
CHEVRO-E,440202,"LYCEE CHEVROLLIER",,47.453911,-0.557476,,,0,,,0
CHEVROLL,858266,"LYCEE CHEVROLLIER",,47.453824,-0.557309,,,0,,,0
CHMART-E,2510,"CHAMP DES MARTYRS",,47.490060,-0.582625,,,0,,,1
CHMARTYR,1237,"CHAMP DES MARTYRS",,47.489855,-0.583086,,,0,,,1
CHOUTEAU,22022,"CHOUTEAU",,47.446256,-0.496856,,,0,,,1
CHOUTE-E,22740,"CHOUTEAU",,47.446118,-0.496704,,,0,,,1
CHPEGU-E,362903,"CHARLES PEGUY",,47.530013,-0.620308,,,0,,,1
CHPEGUY,855516,"CHARLES PEGUY",,47.529912,-0.620285,,,0,,,1
CHVERT,23049,"CHENE VERT",,47.470251,-0.514898,,,0,,,1
CHVERT-E,24160,"CHENE VERT",,47.470421,-0.516632,,,0,,,1
CIAVRI-E,25684,"CIMETIERE D'AVRILLE",,47.506563,-0.590418,,,0,,,1
CIAVRILL,24835,"CIMETIERE D'AVRILLE",,47.506404,-0.591072,,,0,,,1
CIEST.-E,23398,"FRATELLINI",,47.471506,-0.530860,,,0,,,0
CIMEPO-E,26172,"CIMETIERE DES PONTS DE CE",,47.434322,-0.530206,,,0,,,1
CIMEPONT,25421,"CIMETIERE DES PONTS DE CE",,47.434273,-0.529602,,,0,,,1
CIMETI-E,7431,"CIMETIERE DE L'EST",,47.471236,-0.527727,,,0,,,1
CIMETIER,6354,"CIMETIERE DE L'EST",,47.471369,-0.527739,,,0,,,1
CIMETR-E,32029,"CIMETIERE DE TRELAZE",,47.446271,-0.462300,,,0,,,1
CIMTRELA,31082,"CIMETIERE DE TRELAZE",,47.446401,-0.462597,,,0,,,1
CIOUES-E,18204,"CIMETIERE DE L'OUEST",,47.479344,-0.570747,,,0,,,1
CIOUEST,16897,"CIMETIERE DE L'OUEST",,47.478481,-0.569684,,,0,,,1
CITESO-A,68887,"MARCHE MONPLAISIR",,47.488508,-0.535663,,,0,,,1
CITESO-E,3002,"LA CITE CHABADA",,47.488508,-0.535663,,,0,,,1
CITESOLI,61161,"LA CITE CHABADA",,47.488444,-0.536219,,,0,,,1
CITEUN-E,27788,"CITE UNIVERSITAIRE",,47.478676,-0.598176,,,0,,,1
CITEUNIV,30394,"CITE UNIVERSITAIRE",,47.478879,-0.597880,,,0,,,1
CITRON-E,4467,"CITRONNELLE",,47.479321,-0.633746,,,0,,,1
CITRONNL,1586,"CITRONNELLE",,47.479422,-0.634007,,,0,,,1
CLAIE,3838,"CLAIE",,47.460763,-0.627112,,,0,,,0
CLAIE-E,360007,"CLAIE",,47.460717,-0.627038,,,0,,,1
CLART -E,32378,"CLARTE",,47.454009,-0.481335,,,0,,,0
CLARTE,31594,"CLARTE",,47.454108,-0.481349,,,0,,,0
CLAUDE-E,14882,"CLAUDEL",,47.449984,-0.566807,,,0,,,1
CLAUDEL,14,"CLAUDEL",,47.449507,-0.566251,,,0,,,1
CLAVERIE,32135,"CLAVERIE",,47.486652,-0.504501,,,0,,,1
CLEMEG-E,24799,"EGLISE DE SAINT CLEMENT",,47.524913,-0.745279,,,0,,,0
CLEMEGLI,6423,"EGLISE DE SAINT CLEMENT",,47.524816,-0.745610,,,0,,,0
CLEMOI-E,26438,"CONSTANT LEMOINE",,47.471959,-0.541621,,,0,,,1
CLEMOINE,54191,"CONSTANT LEMOINE",,47.471994,-0.542090,,,0,,,1
CLIANJ-E,11590,"PABLO NERUDA",,47.445325,-0.541133,,,0,,,0
CLINAN-E,508501,"CLINIQUE DE L'ANJOU",,47.444458,-0.539046,,,0,,,1
CLINANJO,21645,"CLINIQUE DE L'ANJOU",,47.444430,-0.539116,,,0,,,1
CLINIQ-E,27786,"CLINIQUE SAINT DIDIER",,47.485338,-0.587427,,,0,,,1
CLINIQUE,26512,"CLINIQUE SAINT DIDIER",,47.485155,-0.587077,,,0,,,1
CLODOR-E,17722,"CLOS DOREAU",,47.496336,-0.425149,,,0,,,0
CLODOREA,31214,"CLOS DOREAU",,47.496241,-0.425249,,,0,,,0
CLOS9-E,19966,"CLOS NEUF",,47.422519,-0.565596,,,0,,,1
CLOSDU-E,700600,"CLOS DU VAU",,47.577140,-0.458142,,,0,,,0
CLOSDUVA,900000,"CLOS DU VAU",,47.577249,-0.458131,,,0,,,0
CLOSNEUF,23457,"CLOS NEUF",,47.422402,-0.565475,,,0,,,1
CLOSVI-E,20765,"CLOS DE LA VIGNE",,47.441641,-0.611258,,,0,,,1
CLOSVIGN,17761,"CLOS DE LA VIGNE",,47.441596,-0.611293,,,0,,,1
CLOTEA-E,834642,"CLOTEAU",,47.507532,-0.408483,,,0,,,0
CLOTEAU,466331,"CLOTEAU",,47.507515,-0.408623,,,0,,,0
CLOUET,17775,"CLOUET",,47.480228,-0.566247,,,0,,,1
CLOUET-E,6874,"CLOUET",,47.480639,-0.566362,,,0,,,1
CNFPT,22225,"CNFPT",,47.472384,-0.599778,,,0,,,1
CNFPT-E,32156,"CNFPT",,47.472295,-0.600104,,,0,,,1
COINTR-E,6267,"COINTREAU",,47.476442,-0.507312,,,0,,,1
COINTREA,9457,"COINTREAU",,47.476369,-0.507643,,,0,,,1
COLOMB,74257,"COLOMBIER",,47.482464,-0.490580,,,0,,,1
COLOM-E,64617,"COLOMBIER",,47.482555,-0.490383,,,0,,,1
COLTRIAR,23328,"COLTRIE",,47.485318,-0.675836,,,0,,,0
COLTRIE,31143,"COLTRIE",,47.485471,-0.676010,,,0,,,0
CORMI-E,8668,"CORMIERS",,47.458047,-0.515383,,,0,,,1
CORMIER,24903,"CORMIERS",,47.458362,-0.515926,,,0,,,1
CORNBA-E,932372,"BASCULE CORNÉ",,47.471600,-0.340920,,,0,,,0
CORNBASC,78942,"BASCULE CORNÉ",,47.471633,-0.341125,,,0,,,0
CORNCR-E,434360,"CROIX VERTE",,47.474017,-0.354858,,,0,,,0
CORNCROI,650527,"CROIX VERTE",,47.474177,-0.354730,,,0,,,0
CORNMA-E,575617,"CORNE MAIRIE",,47.470907,-0.350614,,,0,,,0
CORNMAIR,544320,"CORNE MAIRIE",,47.470999,-0.350606,,,0,,,0
COSSE,12393,"COSSE",,47.438224,-0.553215,,,0,,,0
COSSE-E,7690,"COSSE",,47.438250,-0.553447,,,0,,,0
COSSIERE,976646,"COSSIERES",,47.526059,-0.448212,,,0,,,0
COTTAGE,4531,"COTTAGE",,47.494799,-0.515339,,,0,,,1
COTTAG-E,5184,"COTTAGE",,47.494589,-0.515134,,,0,,,1
COUBER-E,70,"JEAN BOUIN SCOLAIRE",,47.458882,-0.532832,,,0,,,0
COUBERTI,6822,"JEAN BOUIN SCOLAIRE",,47.459148,-0.532961,,,0,,,0
COUREAU,617489,"COUREAU",,47.420394,-0.368765,,,0,,,0
COUTARDI,310689,"COUTARDIÈRE",,47.466250,-0.408317,,,0,,,0
COUTAR-E,268168,"COUTARDIÈRE",,47.466232,-0.408159,,,0,,,0
CRBEAU,21760,"CROIX DE BEAUVAIS",,47.611882,-0.585323,,,0,,,0
CRBEAU-E,12387,"CROIX DE BEAUVAIS",,47.612736,-0.584940,,,0,,,0
CRBLANCH,20575,"CROIX BLANCHE",,47.480857,-0.517178,,,0,,,0
CRBLAN-E,21587,"CROIX BLANCHE",,47.480756,-0.517145,,,0,,,0
CRESSO-E,191441,"CRESSONNIERE",,47.474326,-0.492340,,,0,,,0
CRESSONN,407603,"CRESSONNIERE",,47.474331,-0.492068,,,0,,,0
CRETAUDI,809228,"CRETAUDIÈRE",,47.475625,-0.366224,,,0,,,0
CRETAU-E,747849,"CRETAUDIÈRE",,47.475550,-0.366299,,,0,,,0
CRFRUX,29507,"CROIX DES FRUX",,47.503213,-0.690965,,,0,,,0
CRFRUX-E,10392,"CROIX DES FRUX",,47.503348,-0.690967,,,0,,,0
CROISE-E,29354,"CROISETTE",,47.450963,-0.600432,,,0,,,1
CROISETT,28700,"CROISETTE",,47.450933,-0.600121,,,0,,,1
CROIXV-E,28430,"ROUTE DE BOUCHEMAINE",,47.444974,-0.577209,,,0,,,0
CROIXVER,27646,"ROUTE DE BOUCHEMAINE",,47.444890,-0.577266,,,0,,,0
CRVESC-E,485025,"CROIX VERTE Scolaire",,47.474234,-0.354750,,,0,,,0
CRVESCOL,697945,"CROIX VERTE Scolaire",,47.474296,-0.354762,,,0,,,0
CSARTHE,114,"CROIX DE SARTHE",,47.539950,-0.570310,,,0,,,0
CSARTH-E,2380,"CROIX DE SARTHE",,47.540117,-0.569923,,,0,,,0
CTRETR-E,6456,"CENTRE DE TRI",,47.452567,-0.570792,,,0,,,1
CTRETRI,2211,"CENTRE DE TRI",,47.452235,-0.570336,,,0,,,1
DAGUCH-E,539974,"DAGUENIÈRE LE CHÊNE",,47.420101,-0.445472,,,0,,,0
DAGUCHEN,564365,"DAGUENIERE LE CHENE",,47.420293,-0.446046,,,0,,,0
DAGUEG-E,732652,"DAGUENIERE PLACE DE L'EGLISE",,47.419300,-0.436781,,,0,,,0
DAGUEGLI,114161,"DAGUENIERE PLACE DE L'EGLISE",,47.419408,-0.436785,,,0,,,0
DAGUER-E,8833,"DOJO DAGUERRE",,47.446498,-0.506870,,,0,,,0
DAGUERRE,2483,"DOJO DAGUERRE",,47.446639,-0.506314,,,0,,,0
DAGUVA-E,863802,"DAGUENIERE VAL D'AUTHION",,47.419284,-0.428108,,,0,,,0
DAGUVALA,929816,"DAGUENIERE VAL D'AUTHION",,47.419390,-0.428294,,,0,,,0
DANEMA,11354,"DANEMARK",,47.527855,-0.597551,,,0,,,1
DANEMA-E,5563,"DANEMARK",,47.527721,-0.597817,,,0,,,1
DANGELIN,79140,"DANIEL GELIN",,47.445119,-0.526964,,,0,,,1
DARWIN,13304,"DARWIN",,47.473837,-0.604198,,,0,,,0
DARWIN-E,12749,"DARWIN",,47.474255,-0.605230,,,0,,,0
DAUTEL,22320,"DAUTEL",,47.442820,-0.483688,,,0,,,0
DAUTEL-E,26667,"DAUTEL",,47.442871,-0.483276,,,0,,,0
DAVIERES,463464,"DAVIERES",,47.583186,-0.477864,,,0,,,0
DEBEAU-E,9943,"DE BEAUVOIR",,47.529041,-0.614687,,,0,,,0
DEBEAUVO,20135,"DE BEAUVOIR",,47.528946,-0.614638,,,0,,,0
DEBU22-E,12625,"DEBUSSY",,47.487187,-0.515386,,,0,,,0
DEBU31-E,9638,"COLLEGE DEBUSSY",,47.488492,-0.515920,,,0,,,0
DEBUSS22,13474,"DEBUSSY",,47.487634,-0.515812,,,0,,,0
DEBUSS31,24570,"COLLÈGE DEBUSSY",,47.488500,-0.515913,,,0,,,0
DEBUSS-E,612,"DEBUSSY",,47.488420,-0.515830,,,0,,,0
DEBUSSY,32335,"DEBUSSY",,47.488310,-0.516113,,,0,,,0
DEGAUL-E,17571,"DE GAULLE",,47.453109,-0.478216,,,0,,,0
DEGAULLE,30690,"DE GAULLE",,47.453360,-0.478316,,,0,,,0
DELACR-E,3905,"DELACROIX",,47.454898,-0.528833,,,0,,,1
DELACROI,5132,"DELACROIX",,47.454901,-0.528627,,,0,,,1
DELATA-E,29323,"DE LATTRE",,47.453187,-0.541377,,,0,,,1
DELATR-E,25487,"DE LATTRE",,47.452337,-0.541852,,,0,,,1
DELATTAS,27760,"DE LATTRE",,47.453364,-0.541200,,,0,,,1
DELATTRE,10046,"DE LATTRE",,47.452609,-0.541648,,,0,,,1
DELESC-E,22260,"DELESCLUZE",,47.466048,-0.605045,,,0,,,1
DELESCL,27348,"DELESCLUZE",,47.466083,-0.604892,,,0,,,1
DESCAZ-E,25148,"DESCAZEAUX",,47.476786,-0.566113,,,0,,,1
DESCAZEA,5599,"DESCAZEAUX",,47.477432,-0.565945,,,0,,,1
DESER-E,60376,"DE SERRE",,47.477763,-0.614765,,,0,,,0
DESERRE,25513,"DE SERRE",,47.477786,-0.615330,,,0,,,0
DESJARDI,18446,"DESJARDINS",,47.477948,-0.530275,,,0,,,1
DESJAR-E,8104,"DESJARDINS",,47.477862,-0.530132,,,0,,,1
DESMAZ,15401,"DESMAZIERES",,47.462542,-0.534526,,,0,,,1
DESMAZ-E,15428,"DESMAZIERES",,47.462647,-0.535002,,,0,,,1
DEUCRO-E,45594,"2 CROIX",,47.474982,-0.528821,,,0,,,1
DEUCROIX,31483,"2 CROIX",,47.474991,-0.529174,,,0,,,1
DEUVAL,17151,"DEUX VALLÉES",,47.568307,-0.498900,,,0,,,0
DEUVAL-E,575510,"DEUX VALLÉES",,47.568263,-0.498745,,,0,,,0
DEUXCR,12239,"DAGUENET",,47.474811,-0.528444,,,0,,,1
DEUXCR-E,19319,"DAGUENET",,47.474758,-0.527973,,,0,,,1
DEZIE-AR,838436,"AVRILLE ADEZIERE",,47.504930,-0.605048,,,0,,,1
DGELIN-E,81163,"DANIEL GELIN",,47.445152,-0.527125,,,0,,,1
DIONNEAU,28948,"DIONNEAU",,47.438788,-0.530002,,,0,,,1
DIONNE-E,9126,"DIONNEAU",,47.438786,-0.530247,,,0,,,1
DIONNI-E,28803,"DIONNIERE",,47.543693,-0.485056,,,0,,,0
DIONNIER,4977,"DIONNIERE",,47.543693,-0.485056,,,0,,,0
DIX8JU-E,22297,"18 JUIN MONTREUIL",,47.529605,-0.618041,,,0,,,0
DIX8JUI,2997,"18 JUIN MONTREUIL",,47.529528,-0.618128,,,0,,,0
DOLANTIN,225971,"DOLANTINES",,47.527976,-0.445027,,,0,,,0
DOMETA-E,21363,"ROUTE DE L'ETANG",,47.507896,-0.607365,,,0,,,0
DOMETANG,19431,"ROUTE DE L'ETANG",,47.507159,-0.607730,,,0,,,0
DOMVAL,15402,"DOMAINE DU VAL",,47.537042,-0.625043,,,0,,,1
DOMVAL-E,366109,"DOMAINE DU VAL",,47.536901,-0.624975,,,0,,,0
DOMVATER,266184,"DOMAINE DU VAL",,47.536643,-0.624790,,,0,,,1
DOUBLO-E,692318,"DOUBLONNIÈRE",,47.403721,-0.668764,,,0,,,0
DOUBLONI,448269,"DOUBLONNIÈRE",,47.403753,-0.668843,,,0,,,0
DOYENNE,24995,"DOYENNE",,47.490608,-0.532581,,,0,,,1
DOYENN-E,10951,"DOYENNE",,47.490584,-0.532206,,,0,,,0
DSBA-ENT,11739,"ZI EST",,47.475329,-0.495720,,,0,,,1
DSBAR-CV,2951,"ZI EST",,47.475293,-0.495581,,,0,,,1
DSCASUB,661157,"DESCAZEAUX SUB",,47.476912,-0.567311,,,0,,,0
DSCAZEAU,24278,"DESCAZEAUX",,47.476515,-0.566920,,,0,,,1
DSCAZE-E,25257,"DESCAZEAUX",,47.476226,-0.565892,,,0,,,1
DUBE,11379,"DUBE",,47.415859,-0.523038,,,0,,,1
DUBE  -E,12097,"DUBE",,47.415415,-0.523316,,,0,,,1
DUBE-E,583889,"DUBE",,47.415419,-0.523256,,,0,,,0
DUBELL-2,646719,"DU BELLAY",,47.492208,-0.513392,,,0,,,1
DUBELLAY,3061,"DU BELLAY",,47.492473,-0.513379,,,0,,,0
DUBELL-E,3812,"DU BELLAY",,47.492176,-0.513243,,,0,,,0
DUMESN-E,5561,"DUMESNIL",,47.473815,-0.566934,,,0,,,1
DUMESNIL,4581,"DUMESNIL",,47.473868,-0.567564,,,0,,,1
DUMNACUS,23298,"DUMNACUS",,47.486392,-0.592077,,,0,,,0
DUNAN,19081,"DUNANT",,47.483529,-0.525567,,,0,,,1
DUNAN-E,14642,"DUNANT",,47.483348,-0.525681,,,0,,,1
DUREL1-E,749082,"DURELLERIES 1",,47.428923,-0.641367,,,0,,,0
DUREL2-E,631634,"DURELLERIES 2",,47.431119,-0.641869,,,0,,,0
DURELLE1,530721,"DURELLERIES 1",,47.428933,-0.641212,,,0,,,0
DURELLE2,489663,"DURELLERIES 2",,47.431100,-0.641738,,,0,,,0
DURVIL-E,22678,"DUMONT D'URVILLE",,47.445056,-0.557235,,,0,,,1
DURVILLE,28495,"DUMONT D'URVILLE",,47.445205,-0.557177,,,0,,,1
EBEAUP-E,9811,"EBEAUPIN",,47.464415,-0.624810,,,0,,,0
EBEAUPIN,22853,"EBEAUPIN",,47.464338,-0.624740,,,0,,,0
EBLE,18451,"EBLE",,47.455317,-0.566319,,,0,,,1
ECHATS,24869,"ECHATS",,47.480706,-0.632067,,,0,,,1
ECHATS-E,30592,"ECHATS",,47.481018,-0.631917,,,0,,,1
ECHMA-E,30440,"ECHMAN",,47.490228,-0.575637,,,0,,,1
ECHMAN,20511,"ECHMAN",,47.490175,-0.575806,,,0,,,1
ECLATE-E,15952,"ECLATERIES",,47.451073,-0.519982,,,0,,,1
ECLATERI,28347,"ECLATERIES",,47.451199,-0.519733,,,0,,,1
ECOANDAR,621938,"ECOLE ANDARD",,47.457398,-0.398655,,,0,,,0
ECOAND-E,792101,"ECOLE ANDARD",,47.457399,-0.398642,,,0,,,0
ECOBAU-A,548823,"ECOLE DE BAUNE",,47.503086,-0.316172,,,0,,,0
ECOBAU-D,366802,"ECOLE DE BAUNE",,47.503093,-0.316221,,,0,,,0
ECOTIE-E,24531,"ECOTIERE",,47.363601,-0.505626,,,0,,,0
ECOTIERE,28731,"ECOTIERE",,47.363515,-0.505663,,,0,,,0
ECPRVI,986309,"ECOLE PRIMAIRE VILLEVEQUE",,47.559407,-0.424159,,,0,,,0
ECUIL-E,3439,"ECUILLE",,47.616502,-0.560938,,,0,,,0
ECUILL,3505,"ECUILLE",,47.616506,-0.560967,,,0,,,0
EDF,6009,"BERGERIE",,47.487553,-0.471236,,,0,,,0
EDF-E,16211,"BERGERIE",,47.487435,-0.471269,,,0,,,0
EGLTRE-E,1318,"EGLISE DE TRELAZE",,47.445443,-0.464612,,,0,,,1
EGLTRELA,208,"EGLISE DE TRELAZE",,47.445574,-0.464941,,,0,,,1
ELYSEE,18951,"ÉLYSÉE",,47.473517,-0.584628,,,0,,,0
ELYSEE-E,20767,"ÉLYSÉE",,47.473710,-0.584793,,,0,,,0
EMPIRE,15565,"EMPIRE",,47.423122,-0.592835,,,0,,,0
EMPIRE-E,15466,"EMPIRE",,47.422909,-0.593306,,,0,,,0
EPINAY,158422,"EPINAY",,47.432629,-0.377339,,,0,,,0
EPINAY-E,729440,"EPINAY",,47.432609,-0.377248,,,0,,,0
EPINET,160711,"L'EPINET",,47.546583,-0.444356,,,0,,,0
EPIRE,27409,"EPIRE",,47.398581,-0.634615,,,0,,,0
EPIRE-E,7152,"EPIRE",,47.398263,-0.634565,,,0,,,0
ERIGNE,30529,"ERIGNE",,47.400795,-0.530711,,,0,,,1
ERIGNE-E,31182,"ERIGNE",,47.400598,-0.530511,,,0,,,1
ESA,6717,"ESA",,47.458532,-0.544915,,,0,,,1
ESA-E,19309,"ESA",,47.458957,-0.545354,,,0,,,1
ESATBE-E,611355,"ESAT LES BEJONNIERES",,47.481344,-0.510196,,,0,,,0
ESATBEJO,241355,"ESAT LES BEJONNIERES",,47.481282,-0.510115,,,0,,,0
ESCALAV,28477,"ESSCA",,47.476035,-0.599163,,,0,,,0
ESNAUD-E,91404,"L'ESNAUDERIE",,47.593146,-0.549715,,,0,,,0
ESNAUDER,511998,"L'ESNAUDERIE",,47.593253,-0.549823,,,0,,,0
ESPAC-AR,301948,"ESPACE ANJOU",,47.468151,-0.526070,,,0,,,1
ESPACE5A,8609,"ESPACE ANJOU",,47.467390,-0.520326,,,0,,,1
ESPACE5B,6519,"ESPACE ANJOU",,47.467591,-0.520484,,,0,,,1
ESPACEAN,18251,"ESPACE ANJOU",,47.468151,-0.526070,,,0,,,0
ESPAJEUN,28726,"MAISON DE LA DANSE",,47.488869,-0.584872,,,0,,,1
ESPJEU-E,1080,"MAISON DE LA DANSE",,47.488519,-0.585299,,,0,,,1
ESPLO-E,17768,"ESPACE LONGUENEE",,47.540160,-0.672764,,,0,,,0
ESP-LON,16227,"ESPACE LONGUENEE",,47.540102,-0.672993,,,0,,,0
ESPMON-E,34314,"ESPERANTO",,47.529501,-0.603745,,,0,,,1
ESPMONTR,15922,"ESPERANTO",,47.529419,-0.603658,,,0,,,1
ESSCA,86,"ESSCA",,47.476231,-0.599592,,,0,,,0
ESTAMI-E,673452,"ESTAMINET",,47.565754,-0.503686,,,0,,,0
ESTAMINE,579551,"ESTAMINET",,47.565738,-0.503877,,,0,,,0
ETAS,32370,"ETAS",,47.524535,-0.619971,,,0,,,0
ETAS-E,15715,"ETAS",,47.524532,-0.619972,,,0,,,0
EVENT-AR,256533,"EVENTARD",,47.496874,-0.514998,,,0,,,1
EVENTA-T,805219,"EVENTARD",,47.496874,-0.514998,,,0,,,1
FACUL-SS,7400,"FACULTE",,47.479322,-0.550989,,,0,,,1
FACULT-E,30202,"FACULTE",,47.479299,-0.550760,,,0,,,1
FARCY-E,1432,"BALZAC",,47.473415,-0.578225,,,0,,,0
FENCH-E,955983,"CHAMP FLEURI FENEU",,47.567766,-0.579312,,,0,,,0
FENCHFL,815465,"CHAMP FLEURI FENEU",,47.567914,-0.579310,,,0,,,0
FENEU-AR,565789,"EGLISE DE FENEU",,47.569634,-0.594409,,,0,,,1
FENEUBUS,36001,"EGLISE DE FENEU",,47.569634,-0.594409,,,0,,,1
FENEU-ZA,888767,"ZA FENEU ARRIVEE",,47.579174,-0.591391,,,0,,,0
FFAURE,28159,"FELIX FAURE",,47.485660,-0.547307,,,0,,,0
FFAURE-E,13088,"FELIX FAURE",,47.485487,-0.546939,,,0,,,0
FIEFGENT,22382,"FIEF GENTIL",,47.533317,-0.526159,,,0,,,0
FIEGEN-E,24053,"FIEF GENTIL",,47.533279,-0.526050,,,0,,,0
FMEDEC-E,2930,"FACULTE DE MEDECINE",,47.487390,-0.552561,,,0,,,1
FMEDECIN,10330,"FACULTE DE MEDECINE",,47.487180,-0.552285,,,0,,,1
FMITTE-E,8589,"SAINT SERGE UNIVERSITE",,47.476581,-0.551174,,,0,,,1
FMITTERA,6467,"SAINT SERGE UNIVERSITE",,47.476642,-0.551968,,,0,,,1
FOCH .-E,11393,"FOCH MAISON BLEUE",,47.469101,-0.549773,,,0,,,1
FO-LOR-R,170,"FOCH MAISON BLEUE",,47.469676,-0.548989,,,0,,,1
FONTAI-E,26615,"FONTAINE FENEU",,47.569663,-0.590349,,,0,,,0
FONTAINE,15253,"FONTAINE FENEU",,47.569642,-0.590538,,,0,,,0
FORGES,3128,"FORGES",,47.386438,-0.645165,,,0,,,0
FORGES-E,1732,"FORGES",,47.386304,-0.645229,,,0,,,0
FOUDON,534977,"FOUDON",,47.492288,-0.425368,,,0,,,0
FOUDON-E,375171,"FOUDON",,47.492273,-0.425210,,,0,,,0
FOUILLOU,322999,"FOUILLOUX",,47.417866,-0.668967,,,0,,,0
FOUQUE-E,28861,"FOUQUETTERIE",,47.468274,-0.705249,,,0,,,0
FOUQUETT,1497,"FOUQUETTERIE",,47.467921,-0.705179,,,0,,,0
FOUSSEAU,24740,"FOUSSEAUX",,47.515771,-0.468508,,,0,,,0
FOUSSE-E,25785,"FOUSSEAUX",,47.515807,-0.468631,,,0,,,0
FRANCA-E,27417,"FRANCAISERIE",,47.521484,-0.466227,,,0,,,1
FRANCAIS,26601,"FRANCAISERIE",,47.520938,-0.465769,,,0,,,1
FRANVI-E,13502,"VILLON",,47.433643,-0.522855,,,0,,,1
FRANVILL,15918,"VILLON",,47.433724,-0.523151,,,0,,,1
FRATE-E,71441,"FRATERNITE",,47.490839,-0.561683,,,0,,,1
FRATER,49164,"FRATERNITE",,47.491015,-0.562371,,,0,,,1
FRAVISCO,697386,"COLLEGE FRANCOIS VILLON",,47.433030,-0.521968,,,0,,,0
FRAVIS-E,882303,"COLLEGE FRANCOIS VILLON",,47.433313,-0.521492,,,0,,,0
FRCEVE-E,15734,"CEVERT",,47.446567,-0.543635,,,0,,,1
FRCEVERT,14982,"CEVERT",,47.446348,-0.544187,,,0,,,1
FREMON-E,5869,"FREMOND",,47.485763,-0.561906,,,0,,,0
FREMONT,22950,"FREMOND",,47.485690,-0.561319,,,0,,,0
FREMUR,18974,"FREMUR",,47.458710,-0.558224,,,0,,,1
FREMUR-E,19151,"FREMUR",,47.458583,-0.558089,,,0,,,1
FRESNA-E,27900,"FRESNAIES",,47.448234,-0.500900,,,0,,,1
FRESNAIE,23491,"FRESNAIES",,47.448053,-0.500483,,,0,,,1
FRESN-AR,29527,"LE FRESNE",,47.442411,-0.583651,,,0,,,0
FRESNE,32041,"LE FRESNE",,47.442418,-0.583650,,,0,,,0
FRMEIL-E,27294,"MEILLAND",,47.448620,-0.546355,,,0,,,1
FRMEILLA,24551,"MEILLAND",,47.447971,-0.546519,,,0,,,0
FROMIO-E,678514,"FROMIOUX",,47.509993,-0.716868,,,0,,,0
FROMIOUX,159425,"FROMIOUX",,47.509048,-0.714996,,,0,,,0
FRONDEMA,22268,"FRONT DE MAINE",,47.472514,-0.566587,,,0,,,1
FRONDM-E,13856,"FRONT DE MAINE",,47.472260,-0.566167,,,0,,,1
FUNAUL-E,211846,"FUNAULT",,47.534658,-0.456759,,,0,,,0
FUNAULT,368680,"FUNAULT",,47.534595,-0.456771,,,0,,,0
GADIFA-E,226554,"GADIFAIX",,47.576028,-0.449430,,,0,,,0
GADIFAIX,789137,"GADIFAIX",,47.576137,-0.449491,,,0,,,0
GAIGNE,150305,"GAIGNE",,47.384000,-0.552437,,,0,,,0
GALIL-E,9088,"GALILEE",,47.456596,-0.667856,,,0,,,0
GALILEE,17363,"GALILEE",,47.456345,-0.667239,,,0,,,0
GALLIE,3438,"GALLIENI",,47.434617,-0.524572,,,0,,,1
GALLI-E,4908,"GALLIENI",,47.434827,-0.524525,,,0,,,1
GALLIE-E,12457,"PLACE DE L'EUROPE",,47.486208,-0.528974,,,0,,,0
GALLIENI,16963,"PLACE DE L'EUROPE",,47.486083,-0.528696,,,0,,,0
GARD-D-E,735774,"MAIRIE DE SAINT SYLVAIN",,47.519795,-0.471135,,,0,,,1
GARDON-E,38569,"GARDONNE",,47.521629,-0.470926,,,0,,,0
GARDONNE,12906,"GARDONNE",,47.521768,-0.471949,,,0,,,0
GARDOT,27530,"GARDOT",,47.468285,-0.533353,,,0,,,1
GARDOT-E,17618,"GARDOT",,47.468284,-0.533103,,,0,,,1
GAREBO-E,14886,"GARE DE BOUCHEMAINE",,47.416676,-0.614858,,,0,,,1
GAREBOUC,13972,"GARE DE BOUCHEMAINE",,47.416637,-0.614744,,,0,,,1
GARECO-E,23799,"GARE D'ECOUFLANT",,47.503879,-0.519712,,,0,,,0
GARECOUF,30849,"GARE D'ECOUFLANT",,47.503599,-0.520183,,,0,,,0
GAREPA-E,715,"GARES PAPIN",,47.465169,-0.557569,,,0,,,0
GAREPAPI,16316,"GARES PAPIN",,47.464917,-0.557761,,,0,,,0
GARESEMA,21525,"GARES SEMARD",,47.464955,-0.559286,,,0,,,0
GARESNCF,18137,"ANGERS GARES",,47.464686,-0.558011,,,0,,,0
GARPAPIN,26880,"ANGERS GARES",,47.464686,-0.558011,,,0,,,0
GARR-AR,7592,"GARES SEMARD",,47.464955,-0.559286,,,0,,,0
GARVIB-E,117813,"GARE VIEUX BRIOLLAY",,47.572999,-0.482547,,,0,,,0
GARVIBRI,30863,"GARE VIEUX BRIOLLAY",,47.573108,-0.482801,,,0,,,0
GASNIE-E,30059,"GASNIER",,47.485229,-0.571675,,,0,,,1
GASNIER,21628,"GASNIER",,47.485220,-0.571879,,,0,,,1
GASPAL-E,409,"GASPALON",,47.452852,-0.507281,,,0,,,0
GASPALON,21485,"GASPALON",,47.453286,-0.506952,,,0,,,0
GATS,7008,"LES GATS",,47.474404,-0.517656,,,0,,,1
GAUBER-E,12547,"LA BARRE",,47.474429,-0.599540,,,0,,,0
GAUBERT,18121,"GAUBERT",,47.475087,-0.599754,,,0,,,0
GAUBLOCA,18625,"GAUBOURGS",,47.448383,-0.572388,,,0,,,1
GAUBLOCB,21184,"GAUBOURGS",,47.448444,-0.573255,,,0,,,0
GAUBOU-E,23234,"GAUBOURGS",,47.449319,-0.573138,,,0,,,0
GAUBOUR5,29955,"GAUBOURGS",,47.447972,-0.572448,,,0,,,1
GAUGUI-E,397148,"PAUL GAUGUIN",,47.526696,-0.464142,,,0,,,1
GAUGUIN,168097,"PAUL GAUGUIN",,47.526766,-0.464629,,,0,,,1
GAUTIE-E,615013,"PAS GAUTIER",,47.471712,-0.409417,,,0,,,0
GAUTIER,538212,"PAS GAUTIER",,47.471528,-0.409564,,,0,,,0
GBREM-E,25296,"GARES BREMONT",,47.465715,-0.559484,,,0,,,1
GDMAINE,14612,"GRAND MAINE",,47.467608,-0.593025,,,0,,,1
GDMAIN-E,15461,"GRAND MAINE",,47.467398,-0.593580,,,0,,,1
GDMOTTAY,327252,"GRAND MOTTAY",,47.575797,-0.477639,,,0,,,0
GDMOTT-E,431561,"GRAND MOTTAY",,47.575729,-0.477508,,,0,,,0
GDPERI-E,4875,"GRAND PERIGNE",,47.473909,-0.614659,,,0,,,1
GDPERIGN,13901,"GRAND PERIGNE",,47.473809,-0.614664,,,0,,,1
GDPRES-E,18745,"GRAND PRESSOIR",,47.399489,-0.528167,,,0,,,0
GDPRESSO,39547,"GRAND PRESSOIR",,47.399434,-0.527715,,,0,,,1
GEMMET-E,5906,"GEMMETRIE ESAIP",,47.463218,-0.499321,,,0,,,1
GEMMETR,27273,"GEMMETRIE ESAIP",,47.463176,-0.499144,,,0,,,1
GENDRIE,833019,"GENDRIE",,47.498948,-0.324872,,,0,,,0
GENDRI-E,787054,"GENDRIE",,47.498822,-0.324752,,,0,,,0
GENETI-E,30451,"GENETIERE",,47.494680,-0.440709,,,0,,,0
GENETIER,30363,"GENETIERE",,47.495005,-0.442515,,,0,,,0
GENIE,17276,"GENIE",,47.457984,-0.563909,,,0,,,1
GENIE-E,570531,"GENIE",,47.458164,-0.563862,,,0,,,1
GENTR-E,30843,"GENTRIC",,47.447939,-0.485186,,,0,,,0
GENTRIC,45617,"GENTRIC",,47.447382,-0.485716,,,0,,,0
GERI25,4572,"GRANDS RUAUX",,47.565824,-0.555758,,,0,,,0
GERI25-E,19686,"GRANDS RUAUX",,47.565971,-0.555452,,,0,,,0
GERICA-E,2160,"GERICAULT",,47.459861,-0.523681,,,0,,,1
GERICAUL,9434,"GERICAULT",,47.460105,-0.524604,,,0,,,1
GGESSAND,18970,"GEORGE SAND",,47.433139,-0.519621,,,0,,,1
GGSAND-E,36947,"GEORGE SAND",,47.433340,-0.519533,,,0,,,1
GILLIE-E,13563,"GILLIER",,47.474962,-0.525317,,,0,,,1
GILLIER,4265,"GILLIER",,47.475051,-0.525888,,,0,,,1
GIRAD-E,53995,"GIRARDEAU",,47.436438,-0.520408,,,0,,,1
GIRARD,111619,"GIRARD",,47.490591,-0.581697,,,0,,,0
GIRARDE,24763,"GIRARDEAU",,47.436629,-0.520933,,,0,,,1
GIRARD-E,793256,"GIRARD",,47.490633,-0.581885,,,0,,,0
GIRAUD,5136,"GIRAUDIÈRE",,47.521253,-0.436080,,,0,,,0
GLAND,863930,"LA GLAND",,47.403560,-0.658398,,,0,,,0
GLYCIN-E,28945,"GLYCINES",,47.498834,-0.523860,,,0,,,0
GLYCINES,2847,"GLYCINES",,47.499006,-0.523890,,,0,,,0
GOURON-E,1177,"GOURONNIERES",,47.483126,-0.569371,,,0,,,1
GOURONNI,19767,"GOURONNIERES",,47.482974,-0.569443,,,0,,,1
GPOMPIDO,2755,"POMPIDOU",,47.491891,-0.592339,,,0,,,0
GPOMPI-E,10339,"POMPIDOU",,47.492074,-0.592230,,,0,,,0
GRANBE-E,1713,"GRANGE AUX BELLES",,47.476709,-0.628329,,,0,,,1
GRANBELL,19824,"GRANGE AUX BELLES",,47.476672,-0.628594,,,0,,,1
GRANCHEM,658794,"GRAND CHEMIN",,47.417564,-0.310771,,,0,,,0
GRANCLAY,748121,"GRAND CLAYE",,47.387070,-0.538353,,,0,,,0
GRANCL-E,627562,"GRAND CLOS",,47.479806,-0.413527,,,0,,,0
GRANCLOS,51638,"GRAND CLOS",,47.479709,-0.413631,,,0,,,0
GRANDC-E,85459,"GRAND CLAYE",,47.387094,-0.538438,,,0,,,0
GRANDM-E,12485,"GRANDMONT",,47.486947,-0.587992,,,0,,,1
GRANDMON,11878,"GRANDMONT",,47.487549,-0.587593,,,0,,,1
GRANDPIN,21061,"GRAND PIN",,47.473291,-0.631953,,,0,,,1
GRANMA-E,605765,"GRAND MAISON",,47.546145,-0.478545,,,0,,,0
GRANMAIS,936827,"GRAND MAISON",,47.546108,-0.478274,,,0,,,0
GRANPI-E,22564,"GRAND PIN",,47.473301,-0.631656,,,0,,,1
GRCARR-E,7784,"ARENA LOIRE",,47.443454,-0.478290,,,0,,,1
GRCARREA,7000,"ARENA LOIRE",,47.443460,-0.478690,,,0,,,1
GRCHAM-E,669,"GRANDS CHAMPS",,47.514728,-0.434038,,,0,,,0
GRCHAMPS,364,"GRANDS CHAMPS",,47.514649,-0.434210,,,0,,,0
GRCPRU-E,25729,"GROUPE COMMERCIAL",,47.445584,-0.606625,,,0,,,1
GRCPRUNI,24782,"GROUPE COMMERCIAL",,47.445730,-0.605908,,,0,,,1
GRENOUIL,343073,"GRENOUILLE",,47.502958,-0.328259,,,0,,,0
GRES11-E,15716,"GRESILLE",,47.459628,-0.605738,,,0,,,1
GRESILLE,20154,"GRESILLE",,47.459643,-0.605501,,,0,,,1
GRIMOR-E,24527,"GRIMORELLE",,47.529422,-0.507299,,,0,,,0
GRIMOREL,7975,"GRIMORELLE",,47.529494,-0.507307,,,0,,,0
GROI.2-E,590166,"GROIES 2",,47.492028,-0.399523,,,0,,,0
GROIES,14865,"GROIES 1",,47.494179,-0.404213,,,0,,,0
GROIES.2,16726,"GROIES 2",,47.492026,-0.399656,,,0,,,0
GROIES-E,23297,"GROIES 1",,47.494277,-0.404250,,,0,,,0
GROLLI-E,30562,"GROLIERE",,47.353982,-0.527609,,,0,,,0
GROLLIER,29484,"GROLIERE",,47.353945,-0.527456,,,0,,,0
GRUICHE,306120,"GRUICHE",,47.553499,-0.453800,,,0,,,0
GRUICH-E,560134,"GRUICHE",,47.553592,-0.453882,,,0,,,0
GUERAND,12936,"GUERANDAIS",,47.527436,-0.748975,,,0,,,0
GUERAN-E,12246,"GUERANDAIS",,47.527309,-0.748562,,,0,,,0
GUICHA-E,16895,"GUICHARD",,47.454681,-0.547997,,,0,,,1
GUICHARD,21276,"GUICHARD",,47.455296,-0.549254,,,0,,,1
GUILLAU,785925,"GUILLAUMIERE",,47.533051,-0.671843,,,0,,,0
GUILL-E,484479,"GUILLAUMIERE",,47.533142,-0.671734,,,0,,,0
GUILLEB.,13455,"GUILLEBOTTE",,47.437417,-0.513700,,,0,,,1
GUILLE-E,30927,"GUILLEBOTTE",,47.437282,-0.513290,,,0,,,1
GUINEZE,18158,"GUINEZERT",,47.461785,-0.630989,,,0,,,0
GUINEZ-E,13857,"GUINEZERT",,47.461784,-0.631082,,,0,,,0
HARAS,20835,"FOCH HARAS",,47.467124,-0.551936,,,0,,,1
HARAS-E,3412,"FOCH HARAS",,47.467252,-0.552234,,,0,,,1
HARENC,18680,"HARENCHERES",,47.448695,-0.615603,,,0,,,1
HARENC-E,498256,"HARENCHERES",,47.448572,-0.615979,,,0,,,0
HAUBOUCH,4077,"HAUTS DE BOUCHEMAINE",,47.430487,-0.609516,,,0,,,1
HAUBOU-E,4893,"HAUTS DE BOUCHEMAINE",,47.430068,-0.609392,,,0,,,1
HAUCOUD,318097,"HAUT COUDRAY",,47.530417,-0.624038,,,0,,,1
HAUCOU-E,652182,"HAUT COUDRAY",,47.530522,-0.624129,,,0,,,1
HAUSSA-E,494497,"HOUSSAYE",,47.586506,-0.456898,,,0,,,1
HAUTE-E,792660,"HAUTE ROCHE",,47.469074,-0.634858,,,0,,,0
HAUTERO,20353,"HAUTE ROCHE",,47.469075,-0.634997,,,0,,,0
HAUTPR-E,52,"HAUT PRESSOIR",,47.453158,-0.538099,,,0,,,1
HAUTPRES,2552,"HAUT PRESSOIR",,47.453192,-0.538481,,,0,,,1
HDVSUB,159454,"HÔTEL DE VILLE",,47.471981,-0.546310,,,0,,,1
HDVSUB-A,674817,"HÔTEL DE VILLE",,47.471981,-0.546310,,,0,,,0
HERMIT32,1981,"HERMITAGE SOUCELLES",,47.584608,-0.417577,,,0,,,0
HERMITAG,16281,"HERMITAGE",,47.477762,-0.635924,,,0,,,1
HERMIT-E,16836,"HERMITAGE",,47.477759,-0.635303,,,0,,,1
HERMLT32,3329,"HERMITAGE SOUCELLES",,47.584608,-0.417577,,,0,,,0
HIPPOD-E,25720,"HIPPODROME",,47.500888,-0.507814,,,0,,,1
HIPPODRO,25067,"HIPPODROME",,47.501229,-0.507431,,,0,,,1
HJOU32,18910,"HAIE JOULAIN",,47.517582,-0.462656,,,0,,,0
HJOU32-E,32588,"HAIE JOULAIN",,47.517487,-0.462736,,,0,,,0
HMAI,11449,"LORRAINE",,47.470340,-0.547199,,,0,,,1
HMTRE-E,20239,"8 MAI TRELAZE",,47.449399,-0.464995,,,0,,,1
HMTREL,14635,"8 MAI TRELAZE",,47.449774,-0.465528,,,0,,,0
HOPA8-C,27358,"CHU - HOPITAL",,47.480652,-0.554831,,,0,,,1
HOSGEM-E,6304,"HOPITAL DE SAINTE GEMMES",,47.422965,-0.560815,,,0,,,1
HOSGEMME,3118,"HOPITAL DE SAINTE GEMMES",,47.422862,-0.560785,,,0,,,1
HOTDIE-E,22507,"HOTEL DIEU",,47.479368,-0.561084,,,0,,,1
HOTDIEU,4414,"HOTEL DIEU",,47.479199,-0.559338,,,0,,,1
HOTELL-E,31454,"HOTELLERIE",,47.488845,-0.518958,,,0,,,0
HOTELLER,30702,"HOTELLERIE",,47.489373,-0.519596,,,0,,,0
HOUSSAY,802941,"HOUSSAYE",,47.586496,-0.457032,,,0,,,0
HRECUL-E,1885,"HAUTE DE RECULEE",,47.485014,-0.552912,,,0,,,0
HRECULEE,11114,"HAUTE DE RECULEE",,47.485006,-0.552662,,,0,,,0
HTCHA,635019,"HAUTES CHAPELLES",,47.475770,-0.380959,,,0,,,0
HTCHAP-E,72625,"HAUTES CHAPELLES",,47.475794,-0.380889,,,0,,,0
HTCHAPEL,969044,"HAUTES CHAPELLES",,47.475859,-0.380859,,,0,,,0
HTEBRUY,901720,"HAUTES BRUYÈRES",,47.591250,-0.452129,,,0,,,0
HTESBR-E,504742,"HAUTES BRUYÈRES",,47.591231,-0.452141,,,0,,,0
HUETTE-E,924330,"HUETTERIE",,47.458948,-0.478936,,,0,,,0
HUETTERI,899997,"HUETTERIE",,47.459257,-0.478339,,,0,,,0
HULLET-E,33384,"HULLETERIES",,47.465460,-0.720908,,,0,,,0
HULLETER,25810,"HULLETERIES",,47.465353,-0.720932,,,0,,,0
HUTREA-E,7382,"HUTREAU",,47.431353,-0.555494,,,0,,,0
HUTREAU,10466,"HUTREAU",,47.432917,-0.554502,,,0,,,0
HYLIER,471124,"HYLIER",,47.585737,-0.402107,,,0,,,0
I.U.T.,598651,"IUT",,47.480263,-0.602472,,,0,,,1
I.U.T.-E,844184,"IUT",,47.480551,-0.602968,,,0,,,1
IMTEC,27425,"BOUZINAC",,47.503319,-0.509729,,,0,,,0
IMTEC-E,31805,"BOUZINAC",,47.503229,-0.509754,,,0,,,0
INDUST-E,12168,"INDUSTRIE",,47.490015,-0.522870,,,0,,,0
INDUSTRI,11352,"INDUSTRIE",,47.490268,-0.522954,,,0,,,0
INRA,13650,"INRA",,47.474703,-0.611122,,,0,,,1
INRA-E,741028,"INRA",,47.474733,-0.611305,,,0,,,1
INTAVR-E,6846,"AUCHAN",,47.518234,-0.606453,,,0,,,1
INTERAVR,29162,"AUCHAN",,47.518696,-0.607586,,,0,,,1
INTERMIL,3434,"INTERMARCHE",,47.454588,-0.534802,,,0,,,1
INTMIL-E,1195,"INTERMARCHE",,47.455738,-0.533783,,,0,,,1
INTREP-E,8993,"INTREPIDE",,47.447350,-0.552296,,,0,,,0
INTREPID,14842,"INTREPIDE",,47.447226,-0.552110,,,0,,,0
IRLANDE,8934,"IRLANDE",,47.522992,-0.604978,,,0,,,1
IRLAND-E,12365,"IRLANDE",,47.523061,-0.604277,,,0,,,1
ISORET,25741,"ISORET",,47.474718,-0.520832,,,0,,,1
ISORET-E,23628,"ISORET",,47.474436,-0.520149,,,0,,,1
ITALIE,9717,"ITALIE",,47.524529,-0.602375,,,0,,,1
ITALIE-E,13083,"ITALIE",,47.524767,-0.601998,,,0,,,1
IUT-Term,363739,"TERMINUS IUT",,47.480603,-0.603900,,,0,,,1
JANEQU-E,292536,"COLLEGE JANEQUIN",,47.498117,-0.591526,,,0,,,0
JARDBOTA,815390,"JARDIN BOTANIQUE",,47.571711,-0.502605,,,0,,,0
JARDFA,35425,"JARDINS FAMILIAUX",,47.485557,-0.508433,,,0,,,1
JARDF-E,46662,"JARDINS FAMILIAUX",,47.485579,-0.508106,,,0,,,1
JAUDE-E,21218,"JAUDETTE",,47.463316,-0.490954,,,0,,,0
JAUDET-E,22741,"JAUDETTE",,47.463796,-0.490388,,,0,,,1
JAUDETT,10931,"JAUDETTE",,47.463300,-0.491129,,,0,,,0
JAUDETTE,22121,"JAUDETTE",,47.463652,-0.490218,,,0,,,1
JBODIN,21354,"LYCEE JEAN BODIN",,47.441544,-0.527979,,,0,,,0
JDELAVAL,276704,"JEANNE DE LAVAL",,47.465674,-0.383837,,,0,,,0
JDELAV-E,185658,"JEANNE DE LAVAL",,47.465836,-0.383467,,,0,,,0
JE23-E,11485,"JEAN XXIII",,47.448520,-0.563811,,,0,,,1
JEAN M-E,14704,"MONNET",,47.465477,-0.601311,,,0,,,1
JEAN MON,12810,"MONNET",,47.465634,-0.601452,,,0,,,1
JEAN-23,791499,"JEAN XXIII",,47.448324,-0.563741,,,0,,,1
JEAN-MON,880633,"MONNET",,47.465634,-0.601452,,,0,,,1
JEANNA-E,226219,"COLLÈGE JEANNE D'ARC",,47.520419,-0.465594,,,0,,,0
JEANNARC,590509,"COLLEGE JEANNE D'ARC",,47.520392,-0.465590,,,0,,,0
JEANRO-E,256324,"JEAN ROSTAND",,47.448195,-0.501026,,,0,,,0
JEANROST,369358,"JEAN ROSTAND",,47.448817,-0.501141,,,0,,,0
JEANZA-E,132541,"COLLEGE JEAN ZAY",,47.529678,-0.607583,,,0,,,0
JEANZAY,602684,"COLLEGE JEAN ZAY",,47.529674,-0.607596,,,0,,,0
JEBOUI-E,32451,"JEAN BOUIN",,47.458999,-0.532813,,,0,,,1
JEBOUIN,43885,"JEAN BOUIN",,47.458885,-0.532981,,,0,,,1
JEBOUT-E,12854,"JEAN BOUTTON",,47.438891,-0.507244,,,0,,,1
JEBOUTON,30254,"JEAN BOUTTON",,47.438577,-0.507367,,,0,,,1
JEHUEZ,13375,"JEAN HUEZ",,47.530829,-0.594392,,,0,,,0
JEHUEZ-E,27321,"JEAN HUEZ",,47.530884,-0.594262,,,0,,,0
JEJAUR-E,5930,"JEAN JAURES",,47.457683,-0.522819,,,0,,,1
JEJAURES,6732,"JEAN JAURES",,47.457331,-0.523166,,,0,,,1
JEMONNET,869755,"MONNET",,47.465477,-0.601311,,,0,,,1
JEROSTAN,10465,"ROSTAND",,47.434262,-0.513764,,,0,,,1
JEROST-E,16865,"ROSTAND",,47.434367,-0.514074,,,0,,,1
JERUSA-E,30745,"JERUSALEM",,47.473541,-0.529699,,,0,,,1
JERUSALE,23164,"JERUSALEM",,47.473044,-0.530216,,,0,,,1
JOACHI-E,963548,"JOACHIM DU BELLAY",,47.476510,-0.547370,,,0,,,0
JOACHIM,890943,"JOACHIM DU BELLAY",,47.476510,-0.547370,,,0,,,0
JUFERR-E,829,"JULES FERRY",,47.466355,-0.498896,,,0,,,1
JUFERRY,32650,"JULES FERRY",,47.466377,-0.498721,,,0,,,1
JUIGDEP,15142,"JUIGNE",,47.539949,-0.615383,,,0,,,0
JUIGN-E,15158,"JUIGNE",,47.539135,-0.616141,,,0,,,0
JUINDRIE,103281,"JUINDRIES",,47.506090,-0.382506,,,0,,,0
JUINGE-E,351294,"JUINGERES",,47.499458,-0.412743,,,0,,,1
JUINGER,694542,"JUINGERES",,47.499514,-0.412828,,,0,,,1
JULESV-E,3251,"JULES VERNE",,47.446936,-0.560632,,,0,,,1
JULESVER,11240,"JULES VERNE",,47.447479,-0.562224,,,0,,,1
JUSTIC-E,4918,"JUSTICES",,47.453331,-0.526272,,,0,,,1
JUSTICES,9099,"JUSTICES",,47.453629,-0.526549,,,0,,,1
KENNED-E,21066,"KENNEDY",,47.492160,-0.577153,,,0,,,1
KENNEDY,32307,"KENNEDY",,47.492142,-0.577349,,,0,,,1
LABA32-E,12328,"LA BARRE VILLEVEQUE",,47.552193,-0.429209,,,0,,,0
LABARR32,26356,"LA BARRE VILLEVEQUE",,47.552249,-0.429346,,,0,,,0
LABARRE,26186,"LA BARRE",,47.473120,-0.597402,,,0,,,0
LABARR-E,24553,"LA BARRE",,47.473308,-0.598159,,,0,,,0
LA-BOI-E,575897,"LA BOISSIERE",,47.504706,-0.600175,,,0,,,1
LA-BOISS,574608,"LA BOISSIERE",,47.504770,-0.599956,,,0,,,1
LABROS-E,19344,"BROSSE",,47.532455,-0.522145,,,0,,,0
LABROSSE,11507,"BROSSE",,47.532539,-0.522099,,,0,,,0
LABRUY-E,15826,"LA BRUYERE",,47.476457,-0.573345,,,0,,,1
LABRUYER,2726,"LA BRUYERE",,47.476594,-0.573899,,,0,,,1
LABUIS-E,24945,"LA BUISSAIE",,47.396155,-0.552376,,,0,,,1
LABUISSA,24161,"LA BUISSAIE",,47.396104,-0.552000,,,0,,,1
LACACC-E,16598,"MAISON DE L'ENVIRONNEMENT",,47.464050,-0.594329,,,0,,,1
LACACCUE,15782,"MAISON DE L'ENVIRONNEMENT",,47.464238,-0.593932,,,0,,,1
LACDMA-E,27440,"LAC DE MAINE NAUTIQUE",,47.461097,-0.596384,,,0,,,1
LACDMAIN,30379,"LAC DE MAINE NAUTIQUE",,47.461185,-0.596030,,,0,,,1
LACOUD-E,19006,"LA COUDRE",,47.460484,-0.710327,,,0,,,0
LACOUDRE,14817,"LA COUDRE",,47.460641,-0.710428,,,0,,,0
LACROIX,98921,"LA CROIX",,47.417821,-0.314498,,,0,,,0
LAEN-E,66371,"LAENNEC",,47.539430,-0.618642,,,0,,,1
LAENN,43968,"LAENNEC",,47.539332,-0.618370,,,0,,,1
LAFA8-C,19461,"PLACE LA FAYETTE",,47.460455,-0.554351,,,0,,,1
LAFA8-E,6452,"PLACE LA FAYETTE",,47.460311,-0.554852,,,0,,,1
LAFAUV-E,17497,"LA FAUVELAIS",,47.451961,-0.512129,,,0,,,0
LAFAUVEL,8205,"LA FAUVELAIS",,47.452170,-0.512768,,,0,,,0
LAGLOU-E,32242,"GLOUTIERE",,47.508178,-0.643696,,,0,,,0
LAGLOUTI,1095,"GLOUTIERE",,47.509386,-0.646220,,,0,,,0
LAGRAN-E,11339,"LA GRANGE",,47.504497,-0.636804,,,0,,,0
LAGRANGE,26550,"LA GRANGE",,47.503282,-0.632464,,,0,,,0
LAJANV-E,31442,"JANVRIE",,47.504213,-0.699937,,,0,,,0
LAJANVRI,29429,"JANVRIE",,47.504017,-0.699654,,,0,,,0
LALANDE,30783,"LANDE",,47.562290,-0.585439,,,0,,,0
LALAN-E,8374,"LANDE",,47.562431,-0.585311,,,0,,,0
LAMAIL-E,505607,"MAILLÉE",,47.485132,-0.391329,,,0,,,0
LAMAILLE,424217,"MAILLÉE",,47.485065,-0.391433,,,0,,,0
LAMARE,25707,"LA MARE",,47.468452,-0.465301,,,0,,,0
LAMARE-E,691886,"LA MARE",,47.468348,-0.465286,,,0,,,0
LAMART,79764,"LAREVELLIERE",,47.471223,-0.531822,,,0,,,1
LAMART-E,2631,"LAREVELLIERE",,47.471309,-0.533634,,,0,,,1
LANDREAU,29073,"LE LANDREAU",,47.474025,-0.617838,,,0,,,1
LANDRE-E,31271,"LE LANDREAU",,47.474163,-0.617850,,,0,,,1
LANGE-E,20985,"LANGEVIN",,47.518469,-0.612125,,,0,,,0
LANGEV-E,24587,"LANGEVINE",,47.478757,-0.691913,,,0,,,0
LANGEVI,20461,"LANGEVIN",,47.518469,-0.612125,,,0,,,0
LANGEVIN,23618,"LANGEVINE",,47.477812,-0.692010,,,0,,,0
LAPLES-E,7870,"LA PLESSE",,47.499554,-0.620452,,,0,,,0
LAPLESSE,22986,"LA PLESSE",,47.499411,-0.620368,,,0,,,0
LAPOIN-E,17596,"LA POINTE",,47.409872,-0.620310,,,0,,,0
LAPOINTE,16943,"LA POINTE",,47.410287,-0.619839,,,0,,,0
LAREU-E,13697,"LA REUX",,47.469410,-0.510411,,,0,,,1
LAREUX,31088,"LA REUX",,47.469546,-0.510575,,,0,,,1
LAROCHE,5358,"LA ROCHE",,47.458100,-0.656934,,,0,,,0
LAUD,1162,"BODINIER",,47.472656,-0.553225,,,0,,,0
LAV.SC-E,982578,"LAVOIR SCOLAIRE",,47.440876,-0.498629,,,0,,,0
LAV.SCOL,564325,"LAVOIR SCOLAIRE",,47.441022,-0.498498,,,0,,,0
LAVOIR,327,"LAVOIR",,47.440630,-0.498864,,,0,,,1
LAVOIR-E,10144,"LAVOIR",,47.440760,-0.498970,,,0,,,1
LBALUE-E,28840,"BALUÈRES",,47.377630,-0.524851,,,0,,,0
LBALUERE,37252,"BALUÈRES",,47.377628,-0.524673,,,0,,,0
LCHATA-E,28519,"CHATAIGNERAIE",,47.441224,-0.607768,,,0,,,1
LCHATAIG,30413,"CHATAIGNERAIE",,47.441338,-0.607800,,,0,,,1
LE.CLO-E,890179,"LE CLOS",,47.424655,-0.427995,,,0,,,0
LE.CLOS,905100,"LE CLOS",,47.424661,-0.428128,,,0,,,0
LECHENE,12874,"LE CHENE",,47.420953,-0.575995,,,0,,,0
LECHEN-E,9672,"LE CHENE",,47.420738,-0.577473,,,0,,,0
LECL05-E,18831,"LECLERC",,47.483002,-0.575738,,,0,,,1
LECLERC5,32620,"LECLERC",,47.483075,-0.576015,,,0,,,1
LECLSY-E,30324,"MARECHAL LECLERC",,47.518415,-0.466724,,,0,,,1
LECLSYLV,29018,"MARECHAL LECLERC",,47.518515,-0.466522,,,0,,,1
LECOLO-E,26859,"ROUTE DU PLESSIS",,47.525467,-0.666849,,,0,,,0
LECOLOM,31338,"ROUTE DU PLESSIS",,47.525618,-0.667273,,,0,,,0
LECORB-E,1502,"LE CORBUSIER",,47.485453,-0.630886,,,0,,,1
LECORBUS,12622,"LE CORBUSIER",,47.484404,-0.631786,,,0,,,1
LECOTEAU,25663,"LE COTEAU",,47.398239,-0.548674,,,0,,,1
LECOTE-E,26708,"LE COTEAU",,47.398038,-0.549055,,,0,,,1
LECUIT,25536,"LECUIT",,47.489261,-0.563016,,,0,,,1
LECUIT-E,28784,"LECUIT",,47.489452,-0.562763,,,0,,,1
LEDENI-E,6895,"MAISON DU LAC",,47.466089,-0.597783,,,0,,,1
LEDENIER,6046,"MAISON DU LAC",,47.466007,-0.598900,,,0,,,1
LEFEVRE,15440,"LEFEVRE",,47.443291,-0.488697,,,0,,,1
LEFEVR-E,16289,"LEFEVRE",,47.443181,-0.489166,,,0,,,1
LEGRAS,24887,"LEGRAS",,47.529259,-0.566971,,,0,,,0
LEGRAS-E,11618,"LEGRAS",,47.529174,-0.566890,,,0,,,0
LEMERC-E,15956,"LEMERCIER",,47.498615,-0.522428,,,0,,,0
LEMERCIE,15271,"LEMERCIER",,47.498671,-0.522651,,,0,,,0
LEOLA2-E,5985,"LEO LAGRANGE",,47.447816,-0.510352,,,0,,,1
LEOLAGRA,5291,"LEO LAGRANGE",,47.447837,-0.509933,,,0,,,1
LE-PRE,667164,"LE PRÉ",,47.515123,-0.584937,,,0,,,1
LE-PRE-E,150327,"LE PRÉ",,47.515249,-0.585112,,,0,,,1
LESECO-E,7610,"LES ECOTS",,47.475507,-0.695793,,,0,,,0
LESECOTS,19016,"LES ECOTS",,47.475558,-0.695527,,,0,,,0
LESGAR-E,23118,"LES GARES",,47.465469,-0.555334,,,0,,,0
LESGARES,20210,"LES GARES",,47.465168,-0.555790,,,0,,,1
LESGAT-E,24961,"LES GAS",,47.514576,-0.659575,,,0,,,0
LESGRA-E,324614,"LES GRAPPES",,47.426565,-0.301213,,,0,,,0
LESLANDE,2090,"ROBINIERES",,47.470340,-0.697249,,,0,,,0
LESLAN-E,8170,"ROBINIERES",,47.470718,-0.697247,,,0,,,0
LESRIV-E,26528,"RIVES",,47.526712,-0.525072,,,0,,,0
LESRIVES,31416,"RIVES",,47.526623,-0.525087,,,0,,,0
LESROS-E,25672,"LES ROSES",,47.426867,-0.551627,,,0,,,0
LESROSES,5502,"LES ROSES",,47.427059,-0.551364,,,0,,,0
LESSAR-E,23657,"LES ESSARTS",,47.469187,-0.736800,,,0,,,0
LESSARTS,25628,"LES ESSARTS",,47.469086,-0.736728,,,0,,,0
LETAND16,27068,"LETANDUERE",,47.452805,-0.553174,,,0,,,1
LETAND-E,13125,"LETANDUERE",,47.453058,-0.553309,,,0,,,1
LEVESQ-E,29876,"LEVESQUE",,47.402264,-0.534475,,,0,,,1
LEVESQUE,29223,"LEVESQUE",,47.402198,-0.533443,,,0,,,1
LHOI11-E,19931,"LAC DE MAINE - L'HOIRIE",,47.467167,-0.618490,,,0,,,1
LHOIRI11,32088,"LAC DE MAINE - L'HOIRIE",,47.467056,-0.618262,,,0,,,0
LHOIRI-E,7844,"LAC DE MAINE - L'HOIRIE",,47.467031,-0.618365,,,0,,,0
LICES,11754,"LICES",,47.467114,-0.554489,,,0,,,1
LICES-E,669316,"LICES",,47.466947,-0.554650,,,0,,,1
LILAS,6187,"LILAS",,47.459435,-0.662992,,,0,,,0
LILAS-E,17216,"LILAS",,47.459544,-0.663041,,,0,,,0
LINOVE-E,7167,"LINO VENTURA",,47.447160,-0.529189,,,0,,,1
LINOVENT,31038,"LINO VENTURA",,47.447568,-0.529145,,,0,,,1
LIZE,14789,"LIZE",,47.486849,-0.573163,,,0,,,1
LIZE.,26415,"LIZE",,47.487126,-0.574408,,,0,,,1
LIZE05-E,27387,"LIZE",,47.486884,-0.574495,,,0,,,1
LIZE-E,2010,"LIZE",,47.486875,-0.572983,,,0,,,1
LMARZE-E,29867,"HAUTE MARZELLE",,47.342927,-0.529723,,,0,,,0
LMARZELL,2200,"HAUTE MARZELLE",,47.343053,-0.529608,,,0,,,0
LOHUIT,5526,"LORRAINE",,47.470224,-0.547149,,,0,,,1
LOIRE,14252,"LOIRE",,47.418758,-0.523356,,,0,,,1
LOIRE -E,30797,"LOIRE",,47.417786,-0.523584,,,0,,,1
LOIRE-E,700127,"LOIRE",,47.417791,-0.523442,,,0,,,1
LOMBARD,43351,"LOMBARDIERES",,47.442497,-0.690358,,,0,,,0
LOMBAR-E,1349,"LOMBARDIERES",,47.442609,-0.690661,,,0,,,0
LORETTE,7966,"LORETTE",,47.451326,-0.548029,,,0,,,0
LORETT-E,9272,"LORETTE",,47.451214,-0.547596,,,0,,,0
LOR-FO-A,3039,"FOCH MAISON BLEUE",,47.469630,-0.548574,,,0,,,1
LORPLM,22199,"L'ORÉE PLESSIS MACÉ",,47.542630,-0.672404,,,0,,,0
LORPLM-E,8507,"L'ORÉE PLESSIS MACÉ",,47.542585,-0.672335,,,0,,,0
LORR3BIS,29230,"LORRAINE",,47.470057,-0.547885,,,0,,,0
LORRAIN1,20636,"LORRAINE",,47.470220,-0.547761,,,0,,,1
LORRAIN2,31902,"LORRAINE",,47.470056,-0.547885,,,0,,,0
LORRTERM,23465,"LORRAINE",,47.470190,-0.547600,,,0,,,1
LORTIE-E,864598,"L'ORTIER",,47.571234,-0.426110,,,0,,,0
LORTIER,323427,"L'ORTIER",,47.571415,-0.426560,,,0,,,0
LOTISS-E,411,"LOTISSEMENT DE VILLEVEQUE",,47.556726,-0.424144,,,0,,,0
LOTISSEM,29903,"LOTISSEMENT DE VILLEVEQUE",,47.556619,-0.424478,,,0,,,0
LOTVIL-E,788224,"LOTISSEMENT VILLEVEQUE",,47.556566,-0.425561,,,0,,,0
LOTVILSC,477611,"LOTISSEMENT VILLEVEQUE",,47.556469,-0.425549,,,0,,,0
LOUET,10203,"LOUET",,47.412223,-0.523611,,,0,,,0
LOUET -E,10791,"LOUET",,47.412455,-0.523934,,,0,,,0
LOUET-E,605456,"LOUET",,47.412435,-0.523807,,,0,,,1
LOUPIN-E,26592,"LOUPINOT",,47.424594,-0.552657,,,0,,,0
LOUPINO,22893,"LOUPINOT",,47.424534,-0.552507,,,0,,,0
LTAC-E,242,"BOURG DE SOULAINES",,47.364607,-0.525048,,,0,,,0
LTACHON,10237,"BOURG DE SOULAINES",,47.365002,-0.525149,,,0,,,0
LUTIN,32534,"LUTIN",,47.475761,-0.534420,,,0,,,1
LUTIN -E,485,"LUTIN",,47.475729,-0.534174,,,0,,,1
LUTIN-E,331921,"LUTIN",,47.475729,-0.534174,,,0,,,1
LYCEEJMO,28865,"JEAN MOULIN",,47.492399,-0.551893,,,0,,,1
LYCJMO-E,6081,"JEAN MOULIN",,47.492224,-0.551831,,,0,,,1
MA4VE-E,22693,"MAIL DES QUATRE VENTS",,47.531851,-0.528449,,,0,,,0
MACASSAT,16044,"MARY CASSATT",,47.510414,-0.604239,,,0,,,0
MACASS-E,8001,"MARY CASSATT",,47.511311,-0.602866,,,0,,,0
MACE,23738,"MACE",,47.476645,-0.532737,,,0,,,1
MACE-E,756877,"MACÉ",,47.477009,-0.531731,,,0,,,0
MACURIE,12294,"MARIE CURIE",,47.433308,-0.516555,,,0,,,1
MACURI-E,15853,"MARIE CURIE",,47.433310,-0.517047,,,0,,,1
MADELE-E,10442,"MADELEINE",,47.459044,-0.535589,,,0,,,1
MADELEIN,20411,"MADELEINE",,47.459277,-0.535680,,,0,,,1
MAETUD-E,25699,"POLYTECH ANGERS",,47.480635,-0.594586,,,0,,,1
MAETUDIA,25548,"POLYTECH ANGERS",,47.480575,-0.594592,,,0,,,1
MAI4VEN,30964,"MAIL DES QUATRE VENTS",,47.531792,-0.528554,,,0,,,0
MAIL-HDV,7828,"MAIL",,47.471080,-0.546309,,,0,,,1
MAIL-NAE,15219,"MAIL",,47.471272,-0.546578,,,0,,,1
MAIRAV-E,14192,"MAIRIE D'AVRILLE",,47.504954,-0.590814,,,0,,,1
MAIRAVR,11971,"MAIRIE D'AVRILLE",,47.504486,-0.589939,,,0,,,1
MAIRTR-E,3669,"MAIRIE DE TRELAZE",,47.445486,-0.468266,,,0,,,1
MAIRTREL,26533,"MAIRIE DE TRELAZE",,47.445663,-0.469170,,,0,,,1
MAISNE-E,819362,"MAISON NEUVE",,47.453832,-0.428021,,,0,,,0
MAISNEUV,475623,"MAISON NEUVE",,47.454514,-0.428178,,,0,,,0
MAISONSR,8771,"MAISONS ROUGES",,47.474491,-0.511925,,,0,,,1
MAISRO-E,17645,"MAISONS ROUGES",,47.474413,-0.511809,,,0,,,1
MAJUIN5B,39157,"MARECHAL JUIN",,47.449933,-0.567879,,,0,,,1
MALAQUAI,38447,"MALAQUAIS",,47.444369,-0.490370,,,0,,,0
MALAQU-E,27851,"MALAQUAIS",,47.444013,-0.490241,,,0,,,1
MALBOI-E,576278,"MALBOIRE",,47.481774,-0.413922,,,0,,,0
MALBOIRE,671943,"MALBOIRE",,47.481863,-0.414045,,,0,,,0
MALEMBAR,753,"ZI TRELAZE - MALEMBARDIERES",,47.451656,-0.473425,,,0,,,0
MALEMB-E,1504,"ZI TRELAZE - MALEMBARDIERES",,47.451650,-0.473398,,,0,,,0
MALNOUE,193265,"MALNOUE",,47.369096,-0.517249,,,0,,,0
MALNOU-E,863688,"MALNOUE",,47.369009,-0.517156,,,0,,,0
MANSIO-E,211544,"MANSION",,47.477099,-0.588032,,,0,,,1
MANSION,757176,"MANSION",,47.477068,-0.588244,,,0,,,1
MAPTCEAR,402751,"MAIRIE DES PONTS DE CE",,47.425279,-0.523583,,,0,,,0
MAPTSCE,9963,"MAIRIE DES PONTS DE CE",,47.425279,-0.523583,,,0,,,0
MAREJU-E,17469,"MARECHAL JUIN",,47.449747,-0.568123,,,0,,,1
MARIAN-E,28799,"MARIANNE",,47.450058,-0.531100,,,0,,,1
MARIANNE,6575,"MARIANNE",,47.450169,-0.531088,,,0,,,1
MARMIT-E,266529,"MARMITIÈRE",,47.466692,-0.490715,,,0,,,0
MARMITIE,28460,"MARMITIÈRE",,47.466682,-0.490557,,,0,,,0
MAROTT-E,3203,"MAROTTIERES",,47.536270,-0.568630,,,0,,,0
MAROTTIE,10301,"MAROTTIERES",,47.536321,-0.568907,,,0,,,0
MARSAULA,547381,"MARSAULAIE",,47.415556,-0.343703,,,0,,,0
MASGEM-E,29461,"MAIRIE DE SAINTE GEMMES",,47.422881,-0.556596,,,0,,,1
MASGEMME,3967,"MAIRIE DE SAINTE GEMMES",,47.422772,-0.556545,,,0,,,1
MASJLI-E,20082,"MAIRIE DE SAINT JEAN",,47.458643,-0.658927,,,0,,,0
MASJLIN,20807,"MAIRIE DE SAINT JEAN",,47.458073,-0.658441,,,0,,,0
MASSON,12311,"MASSON",,47.531740,-0.567494,,,0,,,0
MASSON-E,16344,"MASSON",,47.532101,-0.567767,,,0,,,0
MASTEL-E,17386,"MASTELLE",,47.529387,-0.591988,,,0,,,1
MASTELLE,16341,"MASTELLE",,47.529427,-0.592483,,,0,,,1
MASTSY,460558,"MAIRIE DE SAINT SYLVAIN",,47.519873,-0.471085,,,0,,,1
MATE25-E,11509,"CHU - HOPITAL",,47.480652,-0.554831,,,0,,,0
MATER89,10739,"MARTINIERE",,47.608591,-0.563632,,,0,,,0
MATERN25,700,"MARTINIERE",,47.608553,-0.563781,,,0,,,0
MATERNIT,11832,"CHU - HOPITAL",,47.481586,-0.553615,,,0,,,0
MAUFINE,36835,"MAUFINEE",,47.502189,-0.589171,,,0,,,1
MAUFIN-E,17293,"MAUFINEE",,47.502602,-0.588821,,,0,,,1
MAUPER-E,24902,"MAUPERTHUIS",,47.433634,-0.485702,,,0,,,0
MAUPERTH,5939,"MAUPERTHUIS",,47.433899,-0.485588,,,0,,,0
MAURIAC,17599,"MALRAUX",,47.457459,-0.473549,,,0,,,1
MAURIA-E,24260,"MALRAUX",,47.457624,-0.473336,,,0,,,1
MBRIAN-E,380053,"MARIUS BRIANT",,47.473864,-0.577236,,,0,,,1
MBRIANT,809387,"MARIUS BRIANT",,47.473640,-0.577207,,,0,,,1
MEIG34-E,7347,"EGLISE DE LA MEIGNANNE",,47.519711,-0.667550,,,0,,,0
MEIGNA34,22128,"EGLISE DE LA MEIGNANNE",,47.519273,-0.667865,,,0,,,0
MEIGNA-E,11052,"LA MEIGNANNE",,47.484411,-0.582622,,,0,,,1
MEIGNANN,10399,"LA MEIGNANNE",,47.483984,-0.582208,,,0,,,1
MELGRA-E,5864,"MELGRANI",,47.477923,-0.591616,,,0,,,0
MELGRANI,9954,"MELGRANI",,47.477759,-0.591680,,,0,,,0
MEMBAL-E,266299,"ECOLE BALZAC",,47.557313,-0.671976,,,0,,,0
MEMBALZA,949595,"ECOLE BALZAC",,47.557005,-0.672086,,,0,,,0
MEMBMA-E,3254,"MAIRIE DE LA MEMBROLLE",,47.560763,-0.672784,,,0,,,0
MEMBRO-E,26396,"BOURG DE LA MEMBROLLE",,47.558425,-0.669713,,,0,,,0
MEMBROLL,3150,"BOURG DE LA MEMBROLLE",,47.558544,-0.670130,,,0,,,0
MEMMAIR,4208,"MAIRIE DE LA MEMBROLLE",,47.560825,-0.673070,,,0,,,0
MENA-E,6305,"MENARD",,47.445717,-0.493686,,,0,,,1
MENARD,20226,"MENARD",,47.445845,-0.493867,,,0,,,0
MENDES-E,25308,"MENDES FRANCE",,47.472945,-0.545600,,,0,,,1
MENDESFR,10353,"MENDES FRANCE",,47.472555,-0.546239,,,0,,,1
MERCIE-E,11750,"MERCIER",,47.492614,-0.458460,,,0,,,0
MERCIER,7042,"MERCIER",,47.492649,-0.458743,,,0,,,0
MERMOZ,21926,"COLLEGE MERMOZ",,47.451897,-0.566805,,,0,,,0
MERMOZ-E,432615,"COLLEGE MERMOZ",,47.451851,-0.566930,,,0,,,0
MICHEL-E,5053,"MICHELET",,47.462862,-0.544243,,,0,,,1
MICHELET,28118,"MICHELET",,47.463532,-0.545509,,,0,,,1
MILLARDI,28787,"MILLARDIERE",,47.513771,-0.473682,,,0,,,1
MILLAR-E,10309,"MILLARDIERE",,47.513919,-0.473746,,,0,,,1
MILLCO-E,18612,"MILLOT SCOLAIRE",,47.456762,-0.533280,,,0,,,0
MILLOT.,4218,"SAUMUROISE",,47.457313,-0.532501,,,0,,,1
MILLOTCO,6963,"MILLOT SCOLAIRE",,47.456943,-0.533423,,,0,,,0
MILLOT-E,2926,"SAUMUROISE",,47.456802,-0.531904,,,0,,,1
MINDIE-E,452383,"CHEMIN DE LA MINDIERE",,47.440089,-0.630436,,,0,,,0
MINDIERE,800356,"CHEMIN DE LA MINDIERE",,47.440000,-0.630454,,,0,,,0
MIRABEAU,9907,"MIRABEAU",,47.460082,-0.550322,,,0,,,1
MIRABE-E,9418,"MIRABEAU",,47.459474,-0.548839,,,0,,,1
MIRBEAU,28498,"MIRBEAU",,47.488222,-0.510787,,,0,,,0
MIRBE-E,15613,"MIRBEAU",,47.488428,-0.509992,,,0,,,0
MLYAUT-E,22959,"MARECHAL LYAUTEY",,47.491833,-0.583737,,,0,,,1
MLYAUTEY,15814,"MARECHAL LYAUTEY",,47.491712,-0.583773,,,0,,,1
MOLINE-E,25255,"MOLINERIE",,47.521410,-0.666726,,,0,,,0
MOLINERI,8190,"MOLINERIE",,47.521471,-0.666890,,,0,,,0
MOLI-PAR,277859,"MOLIERE",,47.473225,-0.555048,,,0,,,1
MON1,7834,"MONGAZON",,47.460963,-0.528672,,,0,,,1
MON1GA-E,1148,"MONGAZON",,47.460864,-0.528443,,,0,,,1
MONCEA-E,810372,"MONCEAU",,47.472331,-0.389562,,,0,,,0
MONCEAU,698763,"MONCEAU",,47.472424,-0.389729,,,0,,,0
MONGELIE,313094,"MONGELIÈRE",,47.585979,-0.412381,,,0,,,0
MONNAIE,643212,"MONNAIE",,47.445158,-0.512411,,,0,,,0
MONNAI-E,228036,"MONNAIE",,47.445042,-0.512496,,,0,,,0
MONNIE-E,2398,"MONNIER",,47.402594,-0.525298,,,0,,,1
MONNIER,1582,"MONNIER",,47.403184,-0.525010,,,0,,,1
MONOD,15527,"MONOD",,47.478725,-0.636641,,,0,,,1
MONOD-E,20101,"MONOD",,47.478985,-0.636379,,,0,,,1
MONPEV-E,4984,"MONPLAISIR",,47.490681,-0.527539,,,0,,,0
MONPL22,7399,"MONPLAISIR",,47.491047,-0.527690,,,0,,,1
MONPLAIS,4795,"MONPLAISIR",,47.491150,-0.528297,,,0,,,1
MONPL-AR,368528,"MONPLAISIR",,47.491150,-0.528297,,,0,,,1
MONPR -E,15116,"MONPROFIT",,47.474540,-0.567088,,,0,,,1
MONPR-E,167732,"MONPROFIT",,47.474539,-0.567094,,,0,,,1
MONPRO-E,29694,"MONPROFIT",,47.474342,-0.566696,,,0,,,1
MONPROF.,29382,"MONPROFIT",,47.474262,-0.566607,,,0,,,1
MONPROFI,18765,"MONPROFIT",,47.474657,-0.567518,,,0,,,1
MONTAI-E,19218,"MONTAIGNE",,47.469498,-0.531587,,,0,,,0
MONTAIG,11328,"MONTAIGNE",,47.469571,-0.531862,,,0,,,1
MONTCA-E,18547,"MONT CASSIN",,47.447152,-0.569576,,,0,,,1
MONTCASB,13329,"MONT CASSIN",,47.447246,-0.569376,,,0,,,1
MONTEC-E,16464,"MONTECLAIR",,47.464406,-0.604797,,,0,,,1
MONTECLA,15647,"MONTECLAIR",,47.464498,-0.604803,,,0,,,1
MONTES-E,16671,"MONTESQUIEU",,47.473821,-0.579501,,,0,,,0
MONTHIBE,4518,"MONTHIBERT",,47.444740,-0.473878,,,0,,,1
MONTHI-E,5661,"MONTHIBERT",,47.444623,-0.473302,,,0,,,1
MONTREP,27125,"REPUBLIQUE MONTREUIL",,47.528839,-0.611208,,,0,,,1
MOREL,6292,"MOREL",,47.474901,-0.608484,,,0,,,1
MOREL-E,6741,"MOREL",,47.474985,-0.608520,,,0,,,1
MORELE-E,4569,"MORELLERIE",,47.451234,-0.544820,,,0,,,1
MORELI-E,6659,"MORELLERIE",,47.451671,-0.545334,,,0,,,1
MORELL,10611,"MORELLERIE",,47.453005,-0.545092,,,0,,,1
MORELL-E,16834,"MORELLERIE",,47.452732,-0.545147,,,0,,,1
MORELLER,495,"MORELLERIE",,47.451387,-0.544936,,,0,,,1
MORELLIE,5810,"MORELLERIE",,47.451809,-0.545323,,,0,,,1
MORET-E,25664,"MORETTE",,47.604393,-0.560887,,,0,,,0
MORETT,2925,"MORETTE",,47.604318,-0.561001,,,0,,,0
MORICI-E,60430,"MORICIERE",,47.485166,-0.357232,,,0,,,0
MORICIER,359213,"MORICIERE",,47.485096,-0.357342,,,0,,,0
MORLIE-E,18333,"MORLIÈRE",,47.461561,-0.482348,,,0,,,1
MORLIERE,17581,"MORLIÈRE",,47.461534,-0.482512,,,0,,,1
MORSUB,850214,"MOREL",,47.474910,-0.607334,,,0,,,0
MORSU-E,77571,"MOREL",,47.475030,-0.607321,,,0,,,0
MOULANDE,871271,"MOULIN DES LANDES",,47.530060,-0.476338,,,0,,,0
MOULAN-E,186690,"MOULIN DES LANDES",,47.530148,-0.476364,,,0,,,0
MOULINER,917875,"MOULINERIE",,47.592385,-0.421864,,,0,,,0
MOULINMA,32614,"MOULIN MARCILLE",,47.433767,-0.500566,,,0,,,1
MOUMA-E,19608,"MOULIN MARCILLE",,47.433756,-0.500578,,,0,,,1
MOUNLYCE,24085,"MOUNIER LYCEE",,47.489799,-0.526844,,,0,,,0
MOUNLY-E,3200,"MOUNIER LYCEE",,47.489799,-0.526844,,,0,,,0
MPLAIS-E,4333,"MONPLAISIR PLESSIS GRAMMOIRE",,47.499763,-0.428812,,,0,,,0
MPLAISIR,9967,"MONPLAISIR PLESSIS GRAMMOIRE",,47.499420,-0.430363,,,0,,,0
MURIER,810277,"MURIER",,47.514058,-0.376578,,,0,,,0
MURS-AR,478864,"MURS ERIGNE",,47.395472,-0.555646,,,0,,,1
MURSERIG,22074,"MURS ERIGNE",,47.395497,-0.555668,,,0,,,0
MURSHDV,7383,"HOTEL DE VILLE",,47.401767,-0.536509,,,0,,,1
MURSHV-E,30163,"HOTEL DE VILLE",,47.401887,-0.537197,,,0,,,1
MUSSET,21453,"MUSSET",,47.473724,-0.539747,,,0,,,1
MUSSET-E,22824,"MUSSET",,47.473624,-0.538720,,,0,,,1
MUTUAL-E,25011,"MUTUALITE",,47.455262,-0.540817,,,0,,,1
MUTUALIT,32144,"MUTUALITE",,47.455800,-0.540826,,,0,,,1
MVIGNE,358268,"MARCEL VIGNE",,47.475012,-0.582192,,,0,,,1
MVIGNE-E,803997,"MARCEL VIGNE",,47.475158,-0.582418,,,0,,,1
NARCE,424467,"LYCÉE NARCÉ",,47.444599,-0.427490,,,0,,,0
NARCE-E,672229,"LYCÉE NARCÉ",,47.444554,-0.427475,,,0,,,0
NDAMELAC,23915,"NOTRE DAME DU LAC",,47.479640,-0.589814,,,0,,,1
NDAMLA-E,24523,"NOTRE DAME DU LAC",,47.479713,-0.589767,,,0,,,1
NONNA-E,8443,"LES NONNAINS",,47.586766,-0.423518,,,0,,,0
NONNAINS,17013,"LES NONNAINS",,47.586923,-0.423601,,,0,,,0
NOUE-E,25919,"NOUELLE",,47.544871,-0.669649,,,0,,,0
NOUELLE,27066,"NOUELLE",,47.544926,-0.669710,,,0,,,0
NOYANT,207687,"NOYANT",,47.563367,-0.545658,,,0,,,0
NOYANT-E,832846,"NOYANT",,47.563318,-0.545795,,,0,,,0
NOYAU,40211,"NOYAU",,47.512630,-0.365560,,,0,,,0
NOZAY,32625,"NOZAY",,47.487728,-0.532076,,,0,,,1
NOZAY-E,661345,"NOZAY",,47.487664,-0.531943,,,0,,,1
OFFTOU-E,3776,"OFFICE DE TOURISME",,47.469181,-0.557585,,,0,,,1
OFFTOURI,26477,"OFFICE DE TOURISME",,47.468866,-0.558122,,,0,,,1
OLIVERAI,4722,"OLIVERAIE",,47.427215,-0.712621,,,0,,,0
OLIVER-E,28837,"OLIVERAIE",,47.427336,-0.712662,,,0,,,0
OREEBOIS,78210,"L'OREE DES BOIS",,47.508384,-0.378844,,,0,,,0
ORGEM2-E,29706,"ORGEMONT",,47.447803,-0.542207,,,0,,,0
ORGEMONT,13154,"ORGEMONT",,47.447157,-0.542557,,,0,,,0
ORMEAU-E,18420,"ORMEAUX",,47.480040,-0.519069,,,0,,,1
ORMEAUX,17473,"ORMEAUX",,47.479954,-0.519738,,,0,,,1
P_RTEBRI,7528,"ROUTE DE BRIOLLAY",,47.485584,-0.533011,,,0,,,1
PALLAC-E,21568,"PALLACH",,47.445941,-0.558793,,,0,,,1
PALLACH,22076,"PALLACH",,47.446169,-0.558998,,,0,,,1
PALLUAU,227710,"PALLUAU",,47.425504,-0.335457,,,0,,,0
P-ANJO-E,32708,"PETIT ANJOU",,47.444518,-0.614611,,,0,,,0
P-ANJOU,24330,"PETIT ANJOU",,47.444976,-0.615264,,,0,,,0
PAPERIE,25531,"PAPERIE",,47.468722,-0.507036,,,0,,,1
PAPERI-E,26837,"PAPERIE",,47.468462,-0.506527,,,0,,,1
PAQUERAI,88085,"PAQUERAIE",,47.481187,-0.410090,,,0,,,0
PAQUER-E,22063,"PAQUERETTE",,47.485962,-0.649518,,,0,,,0
PAQUERET,38080,"PAQUERETTE",,47.485840,-0.649478,,,0,,,0
PAQURA-E,703249,"PAQUERAIE",,47.481102,-0.410135,,,0,,,0
PARC,2377,"RONCEVAUX",,47.486741,-0.598696,,,0,,,0
PARCEX-E,13525,"PARC EXPO CITE DE L'OBJET CONNECTE",,47.496987,-0.493407,,,0,,,1
PARCEXPO,12773,"PARC EXPO CITE DE L'OBJET CONNECTE",,47.496892,-0.494157,,,0,,,1
PARCGA-E,16675,"GARENNE",,47.478341,-0.576503,,,0,,,1
PARCGARE,1681,"GARENNE",,47.478340,-0.576653,,,0,,,1
PARMEN-E,7606,"PARMENTIER",,47.453104,-0.518549,,,0,,,0
PARMENTI,3753,"PARMENTIER",,47.453204,-0.518622,,,0,,,0
PASQUEL,922466,"PASQUELERIE",,47.510651,-0.353188,,,0,,,0
PASTEU-E,26529,"PASTEUR",,47.467113,-0.492969,,,0,,,1
PASTEUR,25811,"PASTEUR",,47.466988,-0.493065,,,0,,,1
PATIO,680234,"PATIO",,47.510719,-0.651796,,,0,,,0
PATIO-E,129375,"PATIO",,47.510819,-0.651733,,,0,,,0
PATIS,2076,"PATIS ST LEGER",,47.464623,-0.706898,,,0,,,0
PATIS-E,29802,"PATIS ST LEGER",,47.464757,-0.707047,,,0,,,0
PATNOIRE,31383,"PAUL BERT",,47.466318,-0.552460,,,0,,,1
PATTON,8271,"PATTON",,47.473316,-0.591641,,,0,,,0
PATTON-E,9022,"PATTON",,47.473499,-0.591644,,,0,,,0
PATUR-E,23972,"PATUREAUX",,47.434015,-0.527906,,,0,,,1
PATUREAU,20375,"PATUREAUX",,47.433815,-0.528022,,,0,,,1
PAUGE-E,30126,"PAUGER",,47.483216,-0.677825,,,0,,,0
PAUGER,23604,"PAUGER",,47.482873,-0.678318,,,0,,,0
PAVILL-E,7849,"PAVILLON",,47.465940,-0.620976,,,0,,,0
PAVILLO,3922,"PAVILLON",,47.465368,-0.621756,,,0,,,0
PCOUBE-E,6322,"COUBERTIN",,47.462452,-0.532314,,,0,,,0
PCOUBERT,27982,"COUBERTIN",,47.462415,-0.532468,,,0,,,0
PEGARDE,21733,"PETITE GARDE",,47.508358,-0.588143,,,0,,,1
PEGARD-E,22451,"PETITE GARDE",,47.508405,-0.587936,,,0,,,1
PELEGL-E,21148,"EGLISE DE PELLOUAILLES",,47.521494,-0.443926,,,0,,,0
PELEGLIS,27979,"EGLISE DE PELLOUAILLES",,47.521613,-0.444059,,,0,,,0
PELLEG-E,243747,"EGLISE DE PELLOUAILLES",,47.522438,-0.443502,,,0,,,0
PELLER-E,13867,"PELLERINIERE",,47.460197,-0.487390,,,0,,,1
PELLERI,10802,"PELLERINIERE",,47.460693,-0.488233,,,0,,,1
PELMAI-E,29474,"MAIRIE DE PELLOUAILLES",,47.521729,-0.439407,,,0,,,0
PELSTADE,26074,"STADE DE PELLOUAILLES",,47.523240,-0.438945,,,0,,,0
PELSTA-E,22112,"STADE DE PELLOUAILLES",,47.523349,-0.438834,,,0,,,0
P-ELYS-E,189856,"ÉLYSÉE",,47.473047,-0.585968,,,0,,,1
PEPIN-AR,262826,"GARE DE TRÉLAZÉ",,47.452156,-0.469606,,,0,,,1
PEPINI-E,11360,"GARE DE TRELAZE",,47.452156,-0.469606,,,0,,,1
PEPINIER,10185,"GARE DE TRELAZE",,47.452448,-0.470017,,,0,,,1
PERAUD-E,16124,"PERRAUDIERE ZA",,47.436263,-0.700228,,,0,,,0
PERAUDIE,11921,"PERRAUDIERE ZA",,47.436242,-0.700040,,,0,,,0
PERDRIAU,4087,"PERDRIAU",,47.439734,-0.487372,,,0,,,0
PERN23-C,31888,"PERRAUDIERE D 723",,47.438470,-0.698523,,,0,,,0
PERRAUDI,3443,"PERRAUDIÈRE ST LAMBERT",,47.482274,-0.681172,,,0,,,0
PERRAU-E,19554,"PERRAUDIÈRE ST LAMBERT",,47.482390,-0.681416,,,0,,,0
PERRBAUN,998251,"LA PERRAUDIERE",,47.508067,-0.346525,,,0,,,0
PERRIE-E,215108,"PERRIERE",,47.463793,-0.408372,,,0,,,0
PERRIERE,395213,"PERRIÈRE",,47.464766,-0.408236,,,0,,,0
PERUSSAI,3238,"PERUSSAIE",,47.466084,-0.596350,,,0,,,1
PERUSS-E,4185,"PERUSSAIE",,47.465529,-0.595458,,,0,,,1
PETGUICH,607987,"PETIT GUICHARD",,47.526066,-0.479078,,,0,,,0
PETGUI-E,993424,"PETIT GUICHARD",,47.526101,-0.478977,,,0,,,0
PETLANDE,11977,"PETITE LANDE",,47.550843,-0.580225,,,0,,,0
PETLAN-E,13939,"PETITE LANDE",,47.554392,-0.581471,,,0,,,0
PETPOR-E,6330,"PETIT PORT",,47.425732,-0.609708,,,0,,,1
PETPORT,5677,"PETIT PORT",,47.425873,-0.609522,,,0,,,1
PICAS,26555,"PICASSO",,47.452988,-0.523161,,,0,,,1
PICAS-E,43700,"PICASSO",,47.452891,-0.521960,,,0,,,1
PICASS-E,29141,"REPUBLIQUE TRELAZE",,47.450544,-0.505543,,,0,,,0
PICASSO,28488,"REPUBLIQUE TRELAZE",,47.450689,-0.505558,,,0,,,0
PIECE,22296,"PIECE DU MOULIN",,47.507364,-0.596622,,,0,,,1
PIECE-E,23406,"PIECE DU MOULIN",,47.507385,-0.596979,,,0,,,1
PIGEONDO,530735,"PIGEON D'OR",,47.469139,-0.389348,,,0,,,0
PIGEON-E,33819,"PIGEON D'OR",,47.469058,-0.389172,,,0,,,0
PIGNONIE,26672,"PIGNONIERE",,47.487289,-0.498263,,,0,,,1
PIJUIG-E,98449,"PISCINE CAMILLE MUFFAT",,47.534191,-0.616522,,,0,,,1
PIJUIGI,491332,"PISCINE CAMILLE MUFFAT",,47.534039,-0.616593,,,0,,,1
PINEAUDI,370444,"PINEAUDIÈRE",,47.594372,-0.538185,,,0,,,0
PINEAU-E,330880,"PINEAUDIÈRE",,47.594116,-0.538219,,,0,,,0
PINELI-E,90368,"PINELIER",,47.523144,-0.743173,,,0,,,0
PINELIER,808769,"PINELIER",,47.522970,-0.743144,,,0,,,0
PINSON-E,24131,"PINSONS",,47.472569,-0.630313,,,0,,,0
PINSONS,23478,"PINSONS",,47.472499,-0.630124,,,0,,,0
PISANI,517316,"PISANI",,47.482962,-0.548944,,,0,,,0
PISCJU-E,6211,"PISCINE CAMILLE MUFFAT",,47.534191,-0.616522,,,0,,,1
PISCJUIG,6185,"PISCINE CAMILLE MUFFAT",,47.534039,-0.616593,,,0,,,1
PIVERD-E,31587,"PIVERDIERE",,47.437392,-0.609829,,,0,,,1
PIVERDIE,30771,"PIVERDIERE",,47.437660,-0.609612,,,0,,,1
PLACEN-E,19486,"PLACE NEY",,47.478569,-0.543098,,,0,,,0
PLACENEY,18833,"PLACE NEY",,47.478347,-0.543534,,,0,,,0
PLATEF-E,28725,"PLATEAU FLEURI",,47.529925,-0.597717,,,0,,,1
PLATFLEU,14518,"PLATEAU FLEURI",,47.529687,-0.598073,,,0,,,1
P-LBAR-E,475176,"LA BARRE",,47.472478,-0.597564,,,0,,,1
PLDEUR-E,30568,"PLACE DE L'EUROPE",,47.487755,-0.527171,,,0,,,1
PLDULYCE,23588,"PLACE DU LYCEE",,47.466874,-0.544375,,,0,,,1
PLDULY-E,29899,"PLACE DU LYCEE",,47.466909,-0.544598,,,0,,,1
PLGBEL-E,386009,"BELLEVUE PLESSIS GRAMMOIRE",,47.504687,-0.440328,,,0,,,0
PLGBELVU,340050,"BELLEVUE PLESSIS GRAMMOIRE",,47.504810,-0.440297,,,0,,,0
PLGRAM-E,913474,"MAIRIE DU PLESSIS GRAMMOIRE",,47.501660,-0.430595,,,0,,,0
PLGRAMMO,17275,"MAIRIE DU PLESSIS GRAMMOIRE",,47.500975,-0.431636,,,0,,,0
PLMACE,32166,"MAIRIE DU PLESSIS MACE",,47.543828,-0.675138,,,0,,,0
PLMACE-E,17244,"MAIRIE DU PLESSIS MACE",,47.544088,-0.674758,,,0,,,0
PLOTIN-E,626210,"PLOTINIERE",,47.472141,-0.433089,,,0,,,0
PLOTINIE,32677,"PLOTINIERE",,47.472288,-0.433233,,,0,,,0
PLOTTI-E,90896,"PLOTTIERE",,47.522402,-0.610725,,,0,,,1
PLOTTIER,317864,"PLOTTIERE",,47.522342,-0.610902,,,0,,,1
POINCA-E,19244,"POINCARE",,47.500257,-0.589665,,,0,,,1
POINCARE,17808,"POINCARE",,47.499849,-0.589499,,,0,,,1
POIREL,14957,"POIREL",,47.461703,-0.562118,,,0,,,1
POIREL-E,5240,"POIREL",,47.461522,-0.562113,,,0,,,1
POISSO-E,16364,"COEUR DE MAINE",,47.472569,-0.556829,,,0,,,1
POISSONN,29689,"COEUR DE MAINE",,47.472316,-0.557167,,,0,,,1
POIVRE,690308,"POIVRE",,47.513532,-0.593046,,,0,,,1
POIVRE-E,17887,"POIVRE",,47.513557,-0.593131,,,0,,,1
POLE49,573557,"POLE 49",,47.489000,-0.491226,,,0,,,1
POLIGU-E,85187,"POLIGUET",,47.494567,-0.397164,,,0,,,0
POLIGUET,527584,"POLIGUET",,47.494498,-0.397273,,,0,,,0
POMANJ-E,19679,"POMANJOU",,47.500202,-0.520708,,,0,,,0
POMANJO,18732,"POMANJOU",,47.500232,-0.520851,,,0,,,0
POMONE,14481,"POMONE",,47.481356,-0.574590,,,0,,,1
POMONE-E,15036,"POMONE",,47.481516,-0.574384,,,0,,,1
PONTLA-E,16421,"PONT LAITIER",,47.413199,-0.617199,,,0,,,1
PONTLAIT,15506,"PONT LAITIER",,47.413158,-0.617090,,,0,,,1
PONTNO-E,4391,"PONT NOIR",,47.464022,-0.562619,,,0,,,1
PONTNOIR,14304,"PONT NOIR",,47.463840,-0.562893,,,0,,,1
PONTSC-E,15414,"MAIRIE DES PONTS DE CE",,47.425495,-0.525811,,,0,,,1
PONTSCEM,14271,"MAIRIE DES PONTS DE CE",,47.425251,-0.525237,,,0,,,1
PORTSG,30148,"LE PORT",,47.421506,-0.573614,,,0,,,0
PORTSG-E,9108,"LE PORT",,47.421563,-0.573992,,,0,,,0
POUIL AR,3580,"POUILLE",,47.432865,-0.532186,,,0,,,1
POUIL-AR,666530,"POUILLE",,47.432846,-0.532180,,,0,,,1
POUILLE,25650,"POUILLE",,47.432768,-0.531752,,,0,,,1
PREVERT,646592,"PREVERT",,47.487774,-0.597530,,,0,,,0
PRIEURE,18873,"PRIEURE",,47.471893,-0.633646,,,0,,,1
PRIEUR-E,19657,"PRIEURE",,47.471869,-0.633574,,,0,,,1
PRINCE,31844,"PRINCE",,47.389523,-0.525723,,,0,,,0
PRINCE-E,25212,"PRINCE",,47.389561,-0.525887,,,0,,,0
PROME-E,27692,"PROMENIERS",,47.477386,-0.631355,,,0,,,1
PROMENIE,26386,"PROMENIERS",,47.477310,-0.631391,,,0,,,1
PROUD-E,6151,"PROUDHON",,47.461394,-0.603236,,,0,,,0
PROUDH-E,30177,"PROUDHON",,47.461657,-0.603411,,,0,,,1
PROUDHON,29327,"PROUDHON",,47.461204,-0.603844,,,0,,,1
PROVIN-E,17083,"PROVINS",,47.492562,-0.502045,,,0,,,1
PROVINS,14341,"PROVINS",,47.492528,-0.502422,,,0,,,1
PRTLAU-E,4444,"PORT LAUNAY",,47.520920,-0.521626,,,0,,,0
PRTLAUNA,20548,"PORT LAUNAY",,47.520718,-0.521638,,,0,,,0
PRUILL,642291,"PRUILLE",,47.577165,-0.662793,,,0,,,0
PRUILLE,817682,"PLACE DE LA FONTAINE",,47.577225,-0.662873,,,0,,,1
PRUILL-E,430244,"PRUILLE",,47.577058,-0.662755,,,0,,,0
PRUNIE-E,27721,"PRUNIERS",,47.449315,-0.602529,,,0,,,1
PRUNIERS,43576,"PRUNIERS",,47.449060,-0.602696,,,0,,,1
PTANJO-E,7177,"CROISEE",,47.459078,-0.667484,,,0,,,0
PTANJOU,24470,"CROISEE",,47.458892,-0.668172,,,0,,,0
PTASSI-E,17550,"POLE TASSIGNY",,47.446472,-0.537415,,,0,,,1
PTELANDE,671903,"LA PETITE LANDE",,47.451239,-0.431977,,,0,,,0
PTFILL-E,19116,"PONT AUX FILLES",,47.512662,-0.515057,,,0,,,0
PTFILLES,1435,"PONT AUX FILLES",,47.512010,-0.515024,,,0,,,0
PTGRCHAM,12601,"PETITS GRANDCHAMPS",,47.463898,-0.714390,,,0,,,0
PTGRCH-E,24018,"PETITS GRANDCHAMPS",,47.464034,-0.714341,,,0,,,0
PTJOUR,18366,"POINT DU JOUR",,47.474264,-0.319784,,,0,,,0
PTMONGAZ,27077,"PETIT MONGAZON",,47.486943,-0.483302,,,0,,,0
PTMONG-E,6242,"PETIT MONGAZON",,47.486715,-0.483341,,,0,,,0
P-VDMA-E,246495,"VAL DE MAINE",,47.443071,-0.612935,,,0,,,1
PYRA10-E,31499,"PYRAMIDE",,47.440078,-0.488733,,,0,,,0
PYRAM02,23017,"PYRAMIDE",,47.440880,-0.488639,,,0,,,1
PYRAM10,1573,"PYRAMIDE",,47.440986,-0.490185,,,0,,,0
PYRAM2-E,46871,"PYRAMIDE",,47.440815,-0.488518,,,0,,,1
QUANTI-E,83420,"QUANTINIERE",,47.455323,-0.471574,,,0,,,1
QUANTIN,17853,"QUANTINIERE",,47.455106,-0.471666,,,0,,,1
QVENTS,4688,"QUATRE VENTS",,47.497151,-0.420747,,,0,,,0
QVENTS-E,15898,"QUATRE VENTS",,47.497096,-0.420865,,,0,,,0
RABELA-E,28844,"RABELAIS",,47.461596,-0.546957,,,0,,,1
RABELAI,819,"RABELAIS",,47.461750,-0.546890,,,0,,,1
RAINIERE,476568,"RAINIERE",,47.578677,-0.476915,,,0,,,0
RALL-A,435252,"RALLIEMENT",,47.471448,-0.551832,,,0,,,1
RALL-R,897236,"RALLIEMENT",,47.471369,-0.551915,,,0,,,1
RAMON,25600,"RAMON",,47.486669,-0.537883,,,0,,,1
RAMON-E,285473,"RAMON",,47.486515,-0.538044,,,0,,,1
RANGEA-E,28686,"RANGEARDIERE",,47.410148,-0.622802,,,0,,,1
RANGEARD,11014,"RANGEARDIERE",,47.410112,-0.622905,,,0,,,1
RAPIDE-E,22324,"RAPIDEX",,47.502692,-0.513959,,,0,,,0
RAPIDEX,21736,"RAPIDEX",,47.502756,-0.514089,,,0,,,0
RASPAI-E,14912,"RASPAIL",,47.475037,-0.570094,,,0,,,0
RASPAIL,3803,"RASPAIL",,47.474927,-0.570096,,,0,,,0
RBRIOL-E,8269,"ROUTE DE BRIOLLAY",,47.486155,-0.532860,,,0,,,1
RBRIOLLA,24653,"ROUTE DE BRIOLLAY",,47.486404,-0.532884,,,0,,,1
RECLAI-E,641741,"RENE CLAIR",,47.536595,-0.621794,,,0,,,1
RECLAIR,461517,"RENE CLAIR",,47.536699,-0.621849,,,0,,,1
REDUM-E,794465,"RENE DUMONT",,47.493915,-0.506179,,,0,,,1
REDUMONT,432264,"RENE DUMONT",,47.493795,-0.506286,,,0,,,1
RENARD,27566,"RENARDIERE",,47.483846,-0.674031,,,0,,,0
RENAR-E,19748,"RENARDIERE",,47.483725,-0.674466,,,0,,,0
RENOIR,26525,"AUGUSTE RENOIR",,47.536082,-0.618577,,,0,,,1
RENOIR-E,478423,"AUGUSTE RENOIR",,47.535998,-0.618425,,,0,,,1
RENOU,6625,"RENOU",,47.436923,-0.486762,,,0,,,0
RENOU-E,4188,"RENOU",,47.437339,-0.486928,,,0,,,0
REPMON-E,31175,"REPUBLIQUE MONTREUIL",,47.528952,-0.610978,,,0,,,1
REPTRE-E,25507,"REPUBLIQUE TRELAZE",,47.450161,-0.504077,,,0,,,1
REPTRELA,9180,"REPUBLIQUE TRELAZE",,47.450145,-0.504357,,,0,,,1
REPUBL-E,6777,"REPUBLIQUE",,47.471694,-0.553859,,,0,,,1
REPUBLIQ,30691,"REPUBLIQUE",,47.471006,-0.553993,,,0,,,1
RESIDE-E,209683,"RESIDENCE",,47.572736,-0.486969,,,0,,,0
RESIDENC,125095,"RESIDENCE",,47.572771,-0.488457,,,0,,,0
RESTLA-E,428093,"RESTAURANT",,47.457849,-0.391502,,,0,,,0
RESTLAVA,675479,"RESTAURANT",,47.457811,-0.391977,,,0,,,0
RESTUN-E,28833,"RESTAU U",,47.479546,-0.600358,,,0,,,1
RESTUNIV,27148,"RESTAU U",,47.479178,-0.600198,,,0,,,1
REUSSI-E,366153,"REUSSIERES",,47.569300,-0.564308,,,0,,,0
REUSSIER,434069,"REUSSIERES",,47.569408,-0.564321,,,0,,,0
REVERI-E,13109,"REVERIES",,47.482106,-0.577855,,,0,,,1
REVERIES,12326,"REVERIES",,47.482005,-0.578452,,,0,,,1
RGILARDI,390494,"ROUTE DES GILARDIERES",,47.385927,-0.564687,,,0,,,0
RIDER,410494,"RIDEREAU",,47.477953,-0.391250,,,0,,,0
RIDEREAU,567791,"RIDEREAU",,47.477937,-0.391282,,,0,,,0
RIDERE-E,917645,"RIDEREAU",,47.478021,-0.391163,,,0,,,0
RIMOUX,716161,"RIMOUX",,47.475803,-0.356206,,,0,,,0
RIMOUX-E,644943,"RIMOUX",,47.475743,-0.356174,,,0,,,0
RIOTTEAU,29013,"RIOTTEAU",,47.443933,-0.498789,,,0,,,0
RIOTTE-E,6695,"RIOTTEAU",,47.443937,-0.499265,,,0,,,1
RIPOLE-E,5826,"RIPOLLET",,47.511172,-0.588369,,,0,,,1
RIPOLLE,22179,"RIPOLLET",,47.510907,-0.588810,,,0,,,1
RIVET,5205,"RIVET",,47.436827,-0.516359,,,0,,,1
RIVET-E,5331,"RIVET",,47.436684,-0.515915,,,0,,,1
RMOINE-E,32116,"ROCHE AUX MOINES",,47.393890,-0.645907,,,0,,,0
RMOINES,6489,"ROCHE AUX MOINES",,47.393847,-0.645740,,,0,,,0
ROCEPI-E,17525,"ROC EPINE",,47.480265,-0.575807,,,0,,,1
ROCEPINE,636,"ROC EPINE",,47.480326,-0.575926,,,0,,,1
ROCHE-E,20309,"ROCHETTE",,47.528737,-0.751186,,,0,,,0
ROCHEF-E,13000,"LA ROCHEFOUCAULD",,47.479428,-0.556732,,,0,,,1
ROCHEFOU,6793,"LA ROCHEFOUCAULD",,47.478851,-0.556972,,,0,,,1
ROCHETTE,22371,"ROCHETTE",,47.528593,-0.751085,,,0,,,0
ROCHMA-E,370620,"ROCHE MAROTTE",,47.447371,-0.519286,,,0,,,0
ROCHMAR,573094,"ROCHE MAROTTE",,47.447421,-0.519173,,,0,,,0
RODIN,12656,"RODIN",,47.475959,-0.625691,,,0,,,1
RODIN-E,399230,"RODIN",,47.476076,-0.625709,,,0,,,1
ROFOUL-E,627992,"ROCHE FOULQUES",,47.575918,-0.455365,,,0,,,0
ROFOULQ,55701,"ROCHE FOULQUES",,47.575868,-0.454769,,,0,,,0
ROIPOLO,883602,"ROI DE POLOGNE",,47.469514,-0.561260,,,0,,,0
ROMA-AD,28445,"SAINTE GEMMES - ROCHE MORNA",,47.420236,-0.581478,,,0,,,0
ROMAB-E,78271,"ROMANERIE",,47.484501,-0.508052,,,0,,,0
ROMABLD,84626,"ROMANERIE",,47.484599,-0.507795,,,0,,,0
ROMOR-AR,871625,"SAINTE GEMMES - ROCHE MORNA",,47.420302,-0.581440,,,0,,,1
ROMORNA,32360,"SAINTE GEMMES - ROCHE MORNA",,47.420324,-0.581400,,,0,,,1
RONCERAY,10261,"RONCERAY",,47.529591,-0.564901,,,0,,,0
RONCER-E,20665,"RONCERAY",,47.530018,-0.565314,,,0,,,0
RONCIE-E,17649,"RONCIERES",,47.436056,-0.513728,,,0,,,1
RONCIERE,3607,"RONCIERES",,47.435943,-0.513476,,,0,,,1
ROUAIR-E,20788,"ROUAIRIE",,47.475664,-0.639018,,,0,,,1
ROUAIRIE,19971,"ROUAIRIE",,47.475690,-0.638920,,,0,,,1
ROUSSI-E,228030,"ROUSSIÈRE",,47.574653,-0.650834,,,0,,,0
ROUSSIER,4742,"ROUSSIÈRE",,47.574652,-0.650673,,,0,,,0
ROUTE4-E,4312,"ROUTE N 4",,47.441573,-0.492395,,,0,,,0
ROUTEN-4,511468,"ROUTE N 4",,47.441833,-0.492649,,,0,,,1
RTECHA-E,31093,"ROUTE DE CHAMPIGNE",,47.572340,-0.593312,,,0,,,0
RTECHAMP,31470,"ROUTE DE CHAMPIGNE",,47.572262,-0.593460,,,0,,,0
RTEDAN-E,14532,"ROUTE D'ANGERS",,47.425440,-0.556239,,,0,,,1
RTEDANGE,6743,"ROUTE D'ANGERS",,47.425501,-0.556521,,,0,,,1
RTEHAU-E,427868,"ROUTE DES HAUTES CHAPELLES",,47.476088,-0.381921,,,0,,,0
RTEMEI-E,19122,"ROUTE DE LA MEIGNANNE",,47.477784,-0.639501,,,0,,,1
RTEMEIGN,18306,"ROUTE DE LA MEIGNANNE",,47.477719,-0.639482,,,0,,,1
RTEPAR-E,19337,"ROUTE DE PARIS",,47.489743,-0.507372,,,0,,,1
RTEPARIS,17574,"ROUTE DE PARIS",,47.489597,-0.508103,,,0,,,1
RTEROU-E,538444,"ROUTE DE LA ROUSSIERE",,47.571875,-0.650128,,,0,,,0
RTEROUSS,50541,"ROUTE DE LA ROUSSIERE",,47.571888,-0.649932,,,0,,,0
RTIERCE,409258,"ROUTE DE TIERCE",,47.584150,-0.496837,,,0,,,0
RTINARD,9553,"ROCHE TINARD",,47.496413,-0.403720,,,0,,,0
RTINAR-E,273,"ROCHE TINARD",,47.496041,-0.402326,,,0,,,0
RTSORG-E,793058,"ROUTE DE SORGES",,47.432648,-0.490873,,,0,,,0
RTSORGES,228228,"ROUTE DE SORGES",,47.432548,-0.490878,,,0,,,0
RUAU,279260,"RUAU",,47.424320,-0.398701,,,0,,,0
RUAU-E,343146,"LE RUAU",,47.424247,-0.398617,,,0,,,0
RUCOURTE,224549,"RUE COURTE",,47.419680,-0.328780,,,0,,,0
RUELLE-E,27445,"RUELLES",,47.437339,-0.531554,,,0,,,1
RUELLES,26825,"RUELLES",,47.437666,-0.531441,,,0,,,1
SABLE-E,19865,"LA SABLE",,47.587048,-0.590393,,,0,,,0
SABLON-E,28751,"SABLONS",,47.439789,-0.533333,,,0,,,1
SABLONS,28098,"SABLONS",,47.440038,-0.533133,,,0,,,1
SAECOE-E,487713,"ECOLE PRIMAIRE PUBLIQUE SAVENNIERES",,47.383342,-0.655836,,,0,,,0
SAECOELE,895663,"ECOLE PRIMAIRE PUBLIQUE SAVENNIERES",,47.383342,-0.655836,,,0,,,0
SAECOMAT,271580,"ECOLE MATERNELLE SAVENNIERES",,47.383115,-0.659629,,,0,,,0
SAECOPRI,591978,"ECOLE PRIMAIRE PRIVEE SAVENNIERES",,47.384668,-0.659300,,,0,,,0
SAICRO-E,20081,"SAINTE CROIX",,47.469864,-0.554963,,,0,,,1
SAICROIX,18938,"SAINTE CROIX",,47.469957,-0.554321,,,0,,,1
SAILLE-E,29523,"SAILLERIE",,47.486530,-0.506792,,,0,,,0
SAJACQ-E,10642,"SAINT JACQUES",,47.473726,-0.572616,,,0,,,1
SAJACQUE,17939,"SAINT JACQUES",,47.473521,-0.571278,,,0,,,1
SALET-AR,91682,"SALETTE",,47.512493,-0.587165,,,0,,,1
SALETT-E,613884,"SALETTE",,47.512630,-0.586802,,,0,,,1
SARRCI-E,11756,"CIMETIERE DE SARRIGNE",,47.501496,-0.388022,,,0,,,0
SARRCIME,1249,"CIMETIERE DE SARRIGNE",,47.501537,-0.387406,,,0,,,0
SARRENAR,980819,"RENARDIERES SARRIGNÉ",,47.493388,-0.389135,,,0,,,0
SARREN-E,115755,"RENARDIÈRES SARRIGNÉ",,47.493482,-0.389148,,,0,,,0
SARRIDEP,398822,"SARRIGNE LES PLANTES",,47.502404,-0.379272,,,0,,,0
SARRIG-E,9431,"SARRIGNÉ LES PLANTES",,47.502406,-0.379316,,,0,,,0
SARRIGNE,31023,"LES PLANTES",,47.502718,-0.378968,,,0,,,0
SARRMA-E,23555,"MAIRIE DE SARRIGNE",,47.501677,-0.383139,,,0,,,0
SARRMAIR,30431,"MAIRIE DE SARRIGNE",,47.501762,-0.383259,,,0,,,0
SAULA-E,997892,"SAULAIE",,47.528968,-0.487747,,,0,,,0
SAULAIE,530410,"SAULAIE",,47.528964,-0.487870,,,0,,,0
SAULAI-E,679503,"SAULAIS",,47.470160,-0.461785,,,0,,,0
SAULAIS,425213,"SAULAIS",,47.470308,-0.461632,,,0,,,0
SAVARY,20832,"SAVARY",,47.473540,-0.542736,,,0,,,1
SAVARY-E,22138,"SAVARY",,47.473470,-0.541324,,,0,,,1
SAVENN-E,989607,"SAVENNIÈRES MAIL",,47.383363,-0.655792,,,0,,,0
SAVENNIE,25242,"SAVENNIERES MAIL",,47.383363,-0.655792,,,0,,,0
SAVGARE,79863,"SAVENNIÈRES GARE",,47.381179,-0.655634,,,0,,,0
SAVGAR-E,282280,"SAVENNIÈRES GARE",,47.381179,-0.655634,,,0,,,0
SBART-AR,914029,"SAINT BARTHELEMY",,47.472617,-0.485871,,,0,,,1
SBARTHEL,11134,"SAINT BARTHELEMY",,47.472615,-0.485871,,,0,,,1
SCAMURS,775738,"SCANIA MURS ERIGNE",,47.383757,-0.549026,,,0,,,0
SCANIA,13638,"SCANIA",,47.493116,-0.522351,,,0,,,0
SCANIA-E,14160,"SCANIA",,47.493612,-0.522226,,,0,,,0
SCHWALBA,31127,"SCHWALBACH",,47.503777,-0.602320,,,0,,,1
SCHWAL-E,32531,"SCHWALBACH",,47.504045,-0.602507,,,0,,,1
SCHWE,32302,"SCHWEITZER",,47.482622,-0.522264,,,0,,,0
SCHWEI..,14896,"SCHWEITZER",,47.482622,-0.522264,,,0,,,0
SCHWEITZ,6816,"MIMOSAS",,47.481576,-0.523443,,,0,,,1
SCHWTZ-E,8671,"MIMOSAS",,47.481552,-0.523192,,,0,,,1
SECUSOCI,26877,"SECURITE SOCIALE",,47.469120,-0.540188,,,0,,,1
SECUSO-E,14711,"SECURITE SOCIALE",,47.468992,-0.540100,,,0,,,1
SEMARD,27110,"GARES SEMARD",,47.464615,-0.560139,,,0,,,1
SEPSON-E,26591,"7 SONNETTES",,47.485737,-0.515147,,,0,,,1
SEPSONET,12415,"7 SONNETTES",,47.486085,-0.514785,,,0,,,1
SEURAT,8147,"CENTRE COMMERCIAL MOLLIERE",,47.460866,-0.617180,,,0,,,1
SEURAT-E,30002,"CENTRE COMMERCIAL MOLLIERE",,47.460777,-0.617481,,,0,,,1
SHEAKS-E,14745,"SHAKESPEARE",,47.461973,-0.612620,,,0,,,1
SHEAKSPE,15855,"SHAKESPEARE",,47.461877,-0.612597,,,0,,,1
SLEZIND,16655,"TRELAZE SAINT LEZIN",,47.450358,-0.488225,,,0,,,0
SLEZIN-E,13324,"TRELAZE SAINT LEZIN",,47.450351,-0.488281,,,0,,,0
SMATGD-E,737761,"GRANDE RUE",,47.411040,-0.333323,,,0,,,0
SMATGDRU,735252,"GRANDE RUE",,47.411125,-0.333079,,,0,,,0
SMATOF-E,634987,"MAIRIE ST MATHURIN SUR LOIRE",,47.409472,-0.322294,,,0,,,0
SMATOFTO,299329,"MAIRIE ST MATHURIN SUR LOIRE",,47.409661,-0.321564,,,0,,,0
SOECPR-E,824288,"ECOLE PRIVEE SOUCELLES",,47.568286,-0.419282,,,0,,,0
SOECPRIV,973131,"ECOLE PRIMAIRE PRIVEE SOUCELLES",,47.568286,-0.419282,,,0,,,0
SOECPUBL,99939,"ECOLE PRIMAIRE PUBLIQUE SOUCELLES",,47.571219,-0.421095,,,0,,,0
SOECPU-E,906211,"ECOLE PUBLIQUE SOUCELLES",,47.571217,-0.421122,,,0,,,0
SOLAND,31835,"SOLAND",,47.399479,-0.531273,,,0,,,1
SOLAND-E,32488,"SOLAND",,47.399582,-0.530468,,,0,,,1
SOLELE-E,26456,"SOLEIL LEVANT",,47.484894,-0.516754,,,0,,,1
SOLELEVA,25379,"SOLEIL LEVANT",,47.484629,-0.517592,,,0,,,1
SORGES,27536,"SORGES",,47.431870,-0.485221,,,0,,,0
SORGES-E,729639,"SORGES",,47.431866,-0.485235,,,0,,,0
SOUCEL-E,19812,"SOUCELLES",,47.570167,-0.420300,,,0,,,0
SOUCELLE,1423,"SOUCELLES",,47.569446,-0.420554,,,0,,,0
SOUCMA-E,465285,"SOUCELLES MAIRIE",,47.568120,-0.419125,,,0,,,0
SOUCMAIR,431117,"SOUCELLES MAIRIE",,47.568120,-0.419125,,,0,,,0
SOULAI-E,39480,"TERTRE SOULAINES",,47.362724,-0.522774,,,0,,,0
SOULAINE,1828,"TERTRE SOULAINES",,47.362895,-0.522665,,,0,,,0
SOULAIR,5421,"SOULAIRE",,47.577327,-0.554304,,,0,,,0
SOULBEAU,584958,"BEAUREPAIRE SOULAIRE",,47.556439,-0.555575,,,0,,,0
SOULBE-E,779714,"BEAUREPAIRE SOULAIRE",,47.556521,-0.555631,,,0,,,0
SOULCHAP,85435,"CHAPELLES SOULAIRES",,47.577036,-0.544685,,,0,,,0
SOULCH-E,403251,"CHAPELLES SOULAIRES",,47.577048,-0.544819,,,0,,,0
SOUL-E,22770,"SOULAIRE",,47.577519,-0.554125,,,0,,,0
SOULEC-E,503218,"ECOLE DE SOULAINES",,47.365765,-0.521276,,,0,,,0
SOULECOL,51293,"ECOLE DE SOULAINES",,47.365870,-0.521555,,,0,,,0
SOUSTADE,179678,"SOUCELLES STADE",,47.570224,-0.422138,,,0,,,0
SOUSTA-E,916505,"SOUCELLES STADE",,47.570020,-0.421902,,,0,,,0
SOUZE-E,13244,"PETITE SOUZELLE",,47.549681,-0.563840,,,0,,,0
SOUZELL,11009,"PETITE SOUZELLE",,47.549137,-0.564462,,,0,,,0
SPORBR-E,27038,"SALLE DE SPORT",,47.561705,-0.505089,,,0,,,0
SPORBRIO,8372,"SALLE DE SPORT",,47.561626,-0.505177,,,0,,,0
SPOT,458426,"GERMAINE TILLION",,47.537072,-0.627455,,,0,,,1
SPOT-E,914780,"GERMAINE TILLION",,47.536742,-0.627917,,,0,,,1
STADE,11605,"STADE DE SAINT BARTHELEMY",,47.461333,-0.492110,,,0,,,1
STADE-E,12422,"STADE DE SAINT BARTHELEMY",,47.461241,-0.491890,,,0,,,1
STAUBI-E,31700,"FOCH SAINT AUBIN",,47.468146,-0.551044,,,0,,,1
STAUBIN,22468,"FOCH SAINT AUBIN",,47.468556,-0.550032,,,0,,,1
STCHAR-E,913352,"COLLEGE ST CHARLES",,47.475632,-0.566942,,,0,,,0
STCHARLE,146807,"COLLEGE ST CHARLES",,47.475640,-0.566938,,,0,,,0
STEMAR-E,11224,"JOSEPH WRESINSKI",,47.484114,-0.559306,,,0,,,1
STEMARI,3210,"JOSEPH WRESINSKI",,47.484577,-0.559243,,,0,,,0
STEMELAI,787343,"SAINT MELAINE",,47.370466,-0.496650,,,0,,,0
STEMEL-E,576181,"SAINT MELAINE",,47.370358,-0.496620,,,0,,,0
STEXUP-E,15821,"SAINT EXUPERY",,47.468021,-0.537403,,,0,,,1
STEXUPER,22347,"SAINT EXUPERY",,47.467847,-0.536517,,,0,,,1
STGILL-E,30071,"SAINT GILLES PLESSIS GRAMMOIRE",,47.495017,-0.431831,,,0,,,0
STGILLES,17692,"SAINT GILLES PLESSIS GRAMMOIRE",,47.495169,-0.432124,,,0,,,0
STJOS-E,14109,"SAINT JOSEPH",,47.464782,-0.541133,,,0,,,1
STJOSEP,23613,"SAINT JOSEPH",,47.464913,-0.541245,,,0,,,1
STLAUD,248626,"COLLEGE SAINT LAUD",,47.418504,-0.522770,,,0,,,0
STLAUD-E,721584,"COLLEGE SAINT LAUD",,47.418563,-0.522832,,,0,,,0
STLAURE,12804,"STADE RAYMOND KOPA",,47.461354,-0.531137,,,0,,,1
STLAUR-E,26259,"STADE RAYMOND KOPA",,47.461425,-0.531667,,,0,,,1
STLEGMAI,301813,"MAIRIE DE SAINT LEGER",,47.459096,-0.709886,,,0,,,0
STLEGM-E,719471,"MAIRIE DE SAINT LEGER",,47.459138,-0.710053,,,0,,,0
STLEMO-E,891148,"SAINT LÉGER MOULIN",,47.461569,-0.708066,,,0,,,0
STLEMOUL,206131,"SAINT LÉGER MOULIN",,47.461538,-0.707913,,,0,,,0
STLEOB-E,6958,"SAINT LEONARD",,47.459544,-0.521971,,,0,,,1
STLEONA.,7908,"SAINT LEONARD",,47.459770,-0.521071,,,0,,,1
STLEONCB,11495,"SAINT LEONARD",,47.459632,-0.522057,,,0,,,1
STLEON-E,7367,"SAINT LEONARD",,47.459772,-0.520856,,,0,,,1
STLOU-E,35907,"SAINT LOUIS",,47.487771,-0.586632,,,0,,,0
STLOUIS,16220,"SAINT LOUIS",,47.487528,-0.586621,,,0,,,0
STMANS,10056,"BANCHAIS",,47.485819,-0.512468,,,0,,,1
STMANS-E,8978,"BANCHAIS",,47.485481,-0.510533,,,0,,,0
STMART-E,1531,"BOURG DE SAINT MARTIN",,47.431407,-0.703074,,,0,,,0
STMARTIN,16698,"BOURG DE SAINT MARTIN",,47.431214,-0.703544,,,0,,,0
STRAS2,24345,"STRASBOURG",,47.457304,-0.554546,,,0,,,1
STRAS2-E,23061,"STRASBOURG",,47.457138,-0.554322,,,0,,,1
STSMAI-E,753560,"MAIRIE DE SAINT SYLVAIN",,47.519855,-0.470723,,,0,,,1
STSMAIR,833473,"MAIRIE DE SAINT SYLVAIN",,47.519887,-0.470705,,,0,,,1
STSYCH-A,701827,"SAINT SYLVAIN",,47.525157,-0.460813,,,0,,,1
STSYCHVE,74046,"SAINT SYLVAIN",,47.525157,-0.460813,,,0,,,1
STSYL-AR,397,"CARREAUX",,47.512716,-0.471042,,,0,,,0
STSYLVAI,32055,"CARREAUX",,47.512736,-0.470738,,,0,,,0
STTERESE,2068,"SAINTE THERESE",,47.480857,-0.564329,,,0,,,1
STTHER-E,7404,"SAINTE THERESE",,47.480599,-0.564220,,,0,,,1
TALET,364496,"TALET",,47.476405,-0.547674,,,0,,,1
TALET-E,453380,"TALET",,47.476182,-0.547694,,,0,,,1
TANCE-E,25473,"TANCELLERIE",,47.516014,-0.663726,,,0,,,0
TANCELL,29482,"TANCELLERIE",,47.515975,-0.663653,,,0,,,0
TARTEL-E,963865,"TARTELUSSE",,47.558812,-0.437852,,,0,,,0
TARTELUS,653022,"TARTELUSSE",,47.558722,-0.437693,,,0,,,0
TASSIG-E,10656,"POLE TASSIGNY",,47.446522,-0.537210,,,0,,,1
TEMPLE,128919,"TEMPLE",,47.489541,-0.428495,,,0,,,0
TEMPLE-E,986897,"TEMPLE",,47.489583,-0.428337,,,0,,,0
TERNEI-E,3391,"TERNIERE",,47.505693,-0.593256,,,0,,,1
TERNIERE,304,"TERNIERE",,47.505698,-0.592635,,,0,,,1
THOMAS-E,18250,"THOMASSERIE",,47.461739,-0.625252,,,0,,,0
THOMASS,27878,"THOMASSERIE",,47.461762,-0.625348,,,0,,,0
THULEA-E,18543,"THULEAU",,47.476548,-0.528093,,,0,,,1
THULEAU,17278,"THULEAU",,47.476489,-0.528390,,,0,,,1
TINELL-E,996881,"TINELLIÈRE",,47.483942,-0.431535,,,0,,,0
TINELLIE,794659,"TINELLIÈRE",,47.483963,-0.431664,,,0,,,0
TOURAI-E,25515,"TOURAINE",,47.539126,-0.435316,,,0,,,0
TOURAINE,26936,"TOURAINE",,47.539045,-0.435465,,,0,,,0
TRELA AR,29269,"TRELAZE QUANTINIERE",,47.459854,-0.475552,,,0,,,1
TRELA-AR,749046,"TRELAZE QUANTINIERE",,47.459869,-0.475528,,,0,,,1
TRELAZE,25775,"TRELAZE QUANTINIERE",,47.458759,-0.474445,,,0,,,1
TRELCH-E,816825,"CHEVALLERIE",,47.445981,-0.458682,,,0,,,0
TRELCHEV,91830,"CHEVALLERIE",,47.446107,-0.458699,,,0,,,0
TRINITE,14286,"TRINITE",,47.475221,-0.562598,,,0,,,1
TRINIT-E,29503,"TRINITE",,47.475166,-0.561780,,,0,,,1
TROIPA-E,22352,"TROIS PAROISSES",,47.441772,-0.534670,,,0,,,1
TROPAROI,30515,"TROIS PAROISSES",,47.441944,-0.534511,,,0,,,1
TUFFIE-E,818343,"TUFFIÈRE",,47.503131,-0.376603,,,0,,,0
TUFFIERE,132042,"TUFFIÈRE",,47.503222,-0.376703,,,0,,,0
TURMIN-E,393447,"TURMINIÈRE",,47.566690,-0.545749,,,0,,,0
TURMINIE,2038,"TURMINIÈRE",,47.566668,-0.545620,,,0,,,0
TURNER,908973,"TURNER",,47.511387,-0.598726,,,0,,,0
TURNER-E,113994,"TURNER",,47.511427,-0.598861,,,0,,,0
UNION,2517,"UNION",,47.519620,-0.475312,,,0,,,1
UNION-E,2651,"UNION",,47.519615,-0.475179,,,0,,,1
VAILLA-E,15274,"VAILLANTE",,47.485316,-0.533364,,,0,,,1
VAILLANT,14457,"VAILLANTE",,47.485283,-0.533557,,,0,,,1
VALDE AR,13450,"VAL DE MAINE",,47.443074,-0.612428,,,0,,,1
VALDE-AR,788530,"VAL DE MAINE",,47.443074,-0.612428,,,0,,,1
VALDEMAI,31960,"VAL DE MAINE",,47.443062,-0.612840,,,0,,,1
VALEO,20234,"VALEO",,47.502137,-0.516934,,,0,,,1
VALEO-E,6240,"VALEO",,47.501925,-0.517047,,,0,,,1
VALHAUY,7522,"VALENTIN HAUY",,47.485742,-0.556069,,,0,,,1
VALHUY-E,4497,"VALENTIN HAUY",,47.486014,-0.555634,,,0,,,1
VALINI-E,347379,"PETITES VALINIERES",,47.507146,-0.445060,,,0,,,0
VALINIER,69725,"PETITES VALINIERES",,47.507204,-0.445000,,,0,,,0
VALLO,23454,"VALLON",,47.463608,-0.602591,,,0,,,1
VALLO-E,21364,"VALLON",,47.463497,-0.602581,,,0,,,1
VALOR,30790,"AVRILLE VAL D'OR",,47.484669,-0.584088,,,0,,,1
VALOR-E,32097,"AVRILLE VAL D'OR",,47.484836,-0.585385,,,0,,,1
VANDE-E,90420,"VANDELLANT",,47.478277,-0.520831,,,0,,,1
VANDEL,63584,"VANDELLANT",,47.478031,-0.521057,,,0,,,1
VANRIE,23633,"LA VENRIE",,47.421245,-0.569988,,,0,,,0
VANRIE-E,13574,"LA VENRIE",,47.421438,-0.570485,,,0,,,0
VARENN-E,10527,"VARENNES",,47.565919,-0.504480,,,0,,,0
VAUBA2-E,18400,"VAUBAN",,47.460000,-0.560788,,,0,,,1
VAUBAN,16296,"VAUBAN",,47.460200,-0.560863,,,0,,,1
VAUGA6,7338,"VAUGAREAU",,47.483714,-0.528690,,,0,,,1
VAUGA6-E,8024,"VAUGAREAU",,47.483375,-0.528362,,,0,,,1
VAUGAR-E,1236,"VAUGAREAU",,47.482369,-0.526674,,,0,,,1
VAUGAREA,31184,"VAUGAREAU",,47.482755,-0.526843,,,0,,,1
VAURAG-E,22290,"VAURAGERE",,47.472796,-0.635526,,,0,,,1
VAURAGER,21571,"VAURAGERE",,47.472849,-0.635416,,,0,,,1
VDLOIRE,6075,"VAL DE LOIRE",,47.449083,-0.513561,,,0,,,1
VDLOIR-E,32158,"VAL DE LOIRE",,47.448829,-0.513406,,,0,,,1
VEAUDO-E,53114,"VEAU DORÉ",,47.476428,-0.413401,,,0,,,0
VEAUDORE,93934,"VEAU DORÉ",,47.476012,-0.413596,,,0,,,0
VEILLE-E,184735,"VEILLEROT",,47.521304,-0.472268,,,0,,,0
VEILLERO,203459,"VEILLEROT",,47.521301,-0.472486,,,0,,,0
VENAIS-E,6725,"VENAISERIE",,47.470825,-0.489667,,,0,,,1
VENAISER,5844,"VENAISERIE",,47.471029,-0.489628,,,0,,,1
VENSCO,863100,"VENAISERIE COLLEGE",,47.471673,-0.486287,,,0,,,0
VENSCO-E,274484,"VENAISERIE COLLEGE",,47.471665,-0.486292,,,0,,,0
VERDUN,31885,"SAINT BARTHELEMY VERDUN",,47.468191,-0.493242,,,0,,,1
VERDUN-E,32668,"SAINT BARTHELEMY VERDUN",,47.468482,-0.492796,,,0,,,1
VERIGNE,12319,"VERIGNE",,47.588269,-0.493678,,,0,,,0
VERIGN-E,24724,"VERIGNE",,47.588212,-0.493507,,,0,,,0
VERN-ARA,62000,"AURIOL",,47.491128,-0.565086,,,0,,,1
VERNEA-E,24578,"AURIOL",,47.491289,-0.564935,,,0,,,1
VERNEREN,32066,"VERNEAU AQUAVITA (08)",,47.493095,-0.568663,,,0,,,1
VERNRE-E,23598,"VERNEAU AQUAVITA (08)",,47.493095,-0.568663,,,0,,,1
VERNUIT,2307,"AQUAVITA",,47.493361,-0.565539,,,0,,,0
VERNUS-E,460891,"VERNUSSON FLORILOIRE",,47.430456,-0.542212,,,0,,,1
VERNUSSO,32414,"VERNUSSON FLORILOIRE",,47.430422,-0.542204,,,0,,,1
VERTRA-E,7353,"VERNEAU",,47.492594,-0.567167,,,0,,,1
VHUGO,15227,"VICTOR HUGO MONTREUIL",,47.528222,-0.611817,,,0,,,0
VHUGO-E,7391,"VICTOR HUGO MONTREUIL",,47.528209,-0.611667,,,0,,,0
VHUGOMJ,10228,"VICTOR HUGO MONTREUIL",,47.528177,-0.611918,,,0,,,0
VICT-D,98126,"VICTOR HUGO",,47.523490,-0.467469,,,0,,,1
VICT-D-E,415331,"VICTOR HUGO",,47.523543,-0.467406,,,0,,,1
VICTHU-E,7901,"VICTOR HUGO",,47.522093,-0.469566,,,0,,,0
VICTHUGO,7019,"VICTOR HUGO",,47.522155,-0.469641,,,0,,,0
VIELLMAI,21047,"VIEILLE MAINE",,47.529842,-0.527821,,,0,,,0
VIELMA-E,22163,"VIEILLE MAINE",,47.529978,-0.527770,,,0,,,0
VIEUXP-E,658385,"VIEUX PORT",,47.570230,-0.495249,,,0,,,0
VIEUXPOR,876933,"VIEUX PORT",,47.570296,-0.495410,,,0,,,0
VIGNES,18380,"LES VIGNES",,47.408901,-0.626354,,,0,,,1
VIGNES-E,19033,"LES VIGNES",,47.408537,-0.626331,,,0,,,1
VILBRG-E,645260,"BEAUREGARD",,47.533845,-0.434720,,,0,,,0
VILLEC-E,8804,"VILLECHIEN",,47.463242,-0.519524,,,0,,,1
VILLECHI,12145,"VILLECHIEN",,47.462630,-0.519742,,,0,,,1
VILLEN-E,12314,"VILLENEUVE",,47.508319,-0.434702,,,0,,,0
VILLENEU,25376,"VILLENEUVE",,47.508334,-0.435058,,,0,,,0
VILLES-E,26023,"VILLESICARD",,47.452417,-0.538389,,,0,,,0
VILLESIC,8016,"VILLESICARD",,47.452474,-0.538335,,,0,,,0
VILSAN-E,309,"VILLAGE SANTE",,47.457155,-0.512175,,,0,,,1
VILSANTE,17408,"VILLAGE SANTE",,47.457561,-0.512721,,,0,,,1
VILVEC-E,16488,"ECOLE DE VILLEVEQUE",,47.560886,-0.421428,,,0,,,0
VILVECOL,28122,"ECOLE DE VILLEVEQUE",,47.560853,-0.421632,,,0,,,0
VILVEQ-E,14981,"MAIRIE DE VILLEVEQUE",,47.559368,-0.422071,,,0,,,0
VILVEQUE,4402,"MAIRIE DE VILLEVEQUE",,47.559473,-0.422195,,,0,,,0
VIRELE-E,976747,"VIRELET",,47.478638,-0.340190,,,0,,,0
VIRELET,259631,"VIRELET",,47.478741,-0.340244,,,0,,,0
VIVIER-E,27166,"VIVIERS",,47.451540,-0.535168,,,0,,,1
VIVIERS,29924,"VIVIERS",,47.451693,-0.535200,,,0,,,1
VOISINAY,896110,"VOISINAY",,47.418918,-0.345394,,,0,,,0
VOLNEY,25948,"VOLNEY",,47.460438,-0.538013,,,0,,,1
VOLNEY-E,29618,"VOLNEY",,47.460567,-0.538639,,,0,,,1
VOLTAI-E,11140,"VOLTAIRE",,47.484519,-0.531053,,,0,,,0
VOLTAIR,10823,"VOLTAIRE",,47.484872,-0.531345,,,0,,,0
WALCOU-E,20782,"WALCOURT",,47.463395,-0.486229,,,0,,,1
WALCOURT,20031,"WALCOURT",,47.463316,-0.485967,,,0,,,1
WBAMA,1851,"BAMAKO",,47.452456,-0.555780,,,0,,,0
WBAM-E,40910,"BAMAKO",,47.452427,-0.556057,,,0,,,0
WBASC,28556,"BASCULE",,47.508756,-0.591774,,,0,,,0
WBAS-E,79692,"BASCULE",,47.508657,-0.591296,,,0,,,0
WBRO-E,13554,"BOIS DU ROY",,47.499605,-0.582877,,,0,,,0
WBROY,9573,"BOIS DU ROY",,47.499761,-0.583414,,,0,,,0
WHSA-E,74471,"HAUTS DE SAINT AUBIN",,47.492331,-0.560591,,,0,,,0
WHSAU,33727,"HAUTS DE SAINT AUBIN",,47.492062,-0.560281,,,0,,,0
WIGAN,15554,"WIGAN",,47.459381,-0.608138,,,0,,,1
WIGAN-E,16501,"WIGAN",,47.459477,-0.608128,,,0,,,1
WJ23-E,13172,"JEAN XXIII",,47.448547,-0.563251,,,0,,,0
WJE23,7983,"JEAN XXIII",,47.448658,-0.562934,,,0,,,0
WJMO-E,72745,"JEAN MOULIN",,47.490708,-0.551835,,,0,,,0
WJMOU,26583,"JEAN MOULIN",,47.490693,-0.552212,,,0,,,0
WJVI-E,88442,"JEAN VILAR",,47.444519,-0.562594,,,0,,,0
WJVIL,37737,"JEAN VILAR",,47.445044,-0.562128,,,0,,,0
WPMA-E,53276,"PLATEAU DE MAYENNE",,47.496335,-0.579263,,,0,,,0
WPMAY,77362,"PLATEAU DE MAYENNE",,47.495882,-0.580358,,,0,,,0
WSTG-E,45847,"SAINT GILLES",,47.506763,-0.589564,,,0,,,0
WSTGI,59183,"SAINT GILLES",,47.506305,-0.589298,,,0,,,0
WTBO-E,30166,"TERRA BOTANICA",,47.494206,-0.575096,,,0,,,1
WTBOT,45969,"TERRA BOTANICA",,47.494083,-0.574716,,,0,,,1
WVERN,27317,"VERNEAU",,47.492391,-0.567528,,,0,,,1
ZABRUNEL,1456,"ZA BRUNELLERIES",,47.439073,-0.620181,,,0,,,1
ZARTISAN,20846,"ZA FENEU DEPART",,47.579282,-0.591373,,,0,,,0
ZARTIS-E,14755,"ZONE ARTISANALE",,47.579628,-0.591927,,,0,,,0
ZIBEAUC,23205,"ZI BEAUCOUZE",,47.460025,-0.619339,,,0,,,0
ZIBEAU-E,19670,"ZI BEAUCOUZE",,47.459969,-0.619290,,,0,,,0
ZICOPE-E,704348,"COPERNIC",,47.516842,-0.610432,,,0,,,1
ZICOPER,389482,"COPERNIC",,47.516842,-0.610432,,,0,,,0
ZPOL49,91599,"POLE 49",,47.489000,-0.491226,,,0,,,1
